codigo_ocorrencia;codigo_ocorrencia1;codigo_ocorrencia2;codigo_ocorrencia3;codigo_ocorrencia4;ocorrencia_classificacao;ocorrencia_latitude;ocorrencia_longitude;ocorrencia_cidade;ocorrencia_uf;ocorrencia_pais;ocorrencia_aerodromo;ocorrencia_dia;ocorrencia_hora;investigacao_aeronave_liberada;investigacao_status;divulgacao_relatorio_numero;divulgacao_relatorio_publicado;divulgacao_dia_publicacao;total_recomendacoes;total_aeronaves_envolvidas;ocorrencia_saida_pista
81756;81756;81756;81756;81756;INCIDENTE GRAVE;-4.324444444444;-56.08805555555;ITAITUBA;PA;BRASIL;SNEJ;05/04/2023;17:20:00;SIM;FINALIZADA;***;NÃO;NULL;0;1;SIM
81747;81747;81747;81747;81747;INCIDENTE;-12.90861111111;-38.3225;SALVADOR;BA;BRASIL;SBSV;24/06/2023;22:00:00;SIM;FINALIZADA;***;NÃO;NULL;0;1;NÃO
81746;81746;81746;81746;81746;INCIDENTE;-6.241111111111;-50.80055555555;OURILÂNDIA DO NORTE;PA;BRASIL;****;27/06/2023;16:12:00;SIM;FINALIZADA;***;NÃO;NULL;0;1;NÃO
81745;81745;81745;81745;81745;INCIDENTE;-5.908333333333;-35.24916666666;NATAL;RN;BRASIL;SBNT;30/06/2023;13:15:00;SIM;FINALIZADA;***;NÃO;NULL;0;1;NÃO
81743;81743;81743;81743;81743;INCIDENTE;-29.99472222222;-51.17111111111;PORTO ALEGRE;RS;BRASIL;SBPA;25/06/2023;23:45:00;SIM;FINALIZADA;***;NÃO;NULL;0;1;NÃO
81742;81742;81742;81742;81742;INCIDENTE;-22.91;-43.1625;RIO DE JANEIRO;RJ;BRASIL;SBRJ;23/06/2023;20:29:00;SIM;FINALIZADA;***;NÃO;NULL;0;1;NÃO
81740;81740;81740;81740;81740;INCIDENTE;-19.62444444444;-43.97194444444;CONFINS;MG;BRASIL;SBCF;24/06/2023;15:02:00;SIM;FINALIZADA;***;NÃO;NULL;0;1;NÃO
81737;81737;81737;81737;81737;ACIDENTE;-18.71277777777;-51.75722222222;ITARUMÃ;GO;BRASIL;***;29/06/2023;14:30:00;SIM;ATIVA;A-107/CENIPA/2023;NÃO;NULL;0;1;SIM
81736;81736;81736;81736;81736;INCIDENTE;-15.87111111111;-47.91861111111;BRASÍLIA;DF;BRASIL;SBBR;03/06/2023;03:30:00;SIM;FINALIZADA;***;NÃO;NULL;0;1;NÃO
81734;81734;81734;81734;81734;INCIDENTE;-29.99472222222;-51.17111111111;PORTO ALEGRE;RS;BRASIL;SBPA;21/06/2023;18:55:00;SIM;FINALIZADA;***;NÃO;NULL;0;1;NÃO
81733;81733;81733;81733;81733;INCIDENTE;-19.85194444444;-43.95055555555;BELO HORIZONTE;MG;BRASIL;SBBH;29/06/2023;17:25:00;SIM;FINALIZADA;***;NÃO;NULL;0;1;NÃO
81732;81732;81732;81732;81732;ACIDENTE;-4.791666666666;-42.82416666666;UNIÃO;PI;BRASIL;***;28/06/2023;12:15:00;SIM;ATIVA;A-106/CENIPA/2023;NÃO;NULL;0;1;NÃO
81731;81731;81731;81731;81731;INCIDENTE;-23.00694444444;-47.13444444444;CAMPINAS;SP;BRASIL;SBKP;21/06/2023;16:49:00;SIM;FINALIZADA;***;NÃO;NULL;0;1;NÃO
81730;81730;81730;81730;81730;INCIDENTE;-2.586944444444;-44.23611111111;SÃO LUÍS;MA;BRASIL;SBSL;25/06/2023;18:48:00;SIM;FINALIZADA;***;NÃO;NULL;0;1;NÃO
81729;81729;81729;81729;81729;INCIDENTE;-3.775833333333;-38.53222222222;FORTALEZA;CE;BRASIL;SBFZ;19/06/2023;23:19:00;SIM;FINALIZADA;***;NÃO;NULL;0;1;NÃO
81727;81727;81727;81727;81727;ACIDENTE;-29.19111111111;-54.55916666666;SANTIAGO;RS;BRASIL;***;19/06/2023;11:10:00;NÃO;ATIVA;A-105/CENIPA/2023;NÃO;NULL;0;1;NÃO
81726;81726;81726;81726;81726;INCIDENTE;-2.424722222222;-54.78583333333;SANTARÉM;PA;BRASIL;SBSN;17/06/2023;13:30:00;SIM;FINALIZADA;***;NÃO;NULL;0;1;NÃO
81725;81725;81725;81725;81725;ACIDENTE;-10.18277777777;-48.54527777777;PORTO NACIONAL;TO;BRASIL;SWEJ;18/06/2023;20:00:00;SIM;ATIVA;A-104/CENIPA/2023;NÃO;NULL;0;1;SIM
81724;81724;81724;81724;81724;ACIDENTE;10.18;48.535;PORTO NACIONAL;TO;BRASIL;***;16/06/2023;14:00:00;NÃO;ATIVA;A-103/CENIPA/2023;NÃO;NULL;0;1;NÃO
81723;81723;81723;81723;81723;INCIDENTE;-22.74361111111;-55.23305555555;LAGUNA CARAPÃ;MS;BRASIL;SD8A;19/06/2023;14:45:00;SIM;FINALIZADA;***;NÃO;NULL;0;1;NÃO
81721;81721;81721;81721;81721;INCIDENTE;-21.13638888888;-47.77666666666;RIBEIRÃO PRETO;SP;BRASIL;SBRP;19/06/2023;19:45:00;SIM;FINALIZADA;***;NÃO;NULL;0;1;NÃO
81720;81720;81720;81720;81720;INCIDENTE;-23.50666666666;-46.63388888888;SÃO PAULO;SP;BRASIL;SBMT;19/06/2023;17:26:00;SIM;FINALIZADA;***;NÃO;NULL;0;1;NÃO
81719;81719;81719;81719;81719;INCIDENTE;-3.10719;-60.0261;MANAUS;AM;BRASIL;SBEG;19/05/2023;19:08:00;SIM;FINALIZADA;***;NÃO;NULL;0;1;NÃO
81718;81718;81718;81718;81718;ACIDENTE;-16.42;-47.31972222222;UNAÍ;MG;BRASIL;***;14/06/2023;11:20:00;SIM;ATIVA;A-102/CENIPA/2023;NÃO;NULL;0;1;NÃO
81717;81717;81717;81717;81717;INCIDENTE;-19.62444444444;-43.97194444444;CONFINS;MG;BRASIL;SBCF;10/06/2023;11:44:00;SIM;FINALIZADA;***;NÃO;NULL;0;1;NÃO
81715;81715;81715;81715;81715;INCIDENTE;-23.43555555555;-46.47305555555;GUARULHOS;SP;BRASIL;SBGR;16/06/2023;17:04:00;SIM;FINALIZADA;***;NÃO;NULL;0;1;NÃO
81713;81713;81713;81713;81713;INCIDENTE;3.025;-60.75138888888;BOA VISTA;RR;BRASIL;***;15/06/2023;13:10:00;SIM;FINALIZADA;***;NÃO;NULL;0;1;NÃO
81712;81712;81712;81712;81712;INCIDENTE GRAVE;-17.03833333333;-53.30805555555;ALTO ARAGUAIA;MT;BRASIL;****;13/06/2023;15:30:00;SIM;ATIVA;IG-101/CENIPA/2023;NÃO;NULL;0;1;SIM
81711;81711;81711;81711;81711;INCIDENTE GRAVE;-22.28888888888;-45.91944444444;POUSO ALEGRE;MG;BRASIL;SNZA;15/06/2023;13:10:00;SIM;FINALIZADA;***;NÃO;NULL;0;1;SIM
81710;81710;81710;81710;81710;ACIDENTE;-30.00166666666;-56.80861111111;URUGUAIANA;RS;BRASIL;APUA;09/06/2023;11:45:00;SIM;ATIVA;A-098/CENIPA/2023;NÃO;NULL;0;1;SIM
81709;81709;81709;81709;81709;INCIDENTE;2.765;-62.22138888888;ALTO ALEGRE;RR;BRASIL;SJYG;03/06/2023;21:30:00;SIM;FINALIZADA;***;NÃO;NULL;0;1;NÃO
81708;81708;81708;81708;81708;INCIDENTE;-19.85194444444;-43.95055555555;BELO HORIZONTE;MG;BRASIL;SBBH;09/06/2023;12:00:00;SIM;FINALIZADA;***;NÃO;NULL;0;1;NÃO
81707;81707;81707;81707;81707;ACIDENTE;-23.59527777777;-46.45138888888;SÃO PAULO;SP;BRASIL;***;01/06/2023;12:24:00;SIM;ATIVA;A-093/CENIPA/2023;NÃO;NULL;0;1;NÃO
81706;81706;81706;81706;81706;ACIDENTE;-5.071666666666;-42.81666666666;TERESINA;PI;BRASIL;SBTE;12/06/2023;15:33:00;SIM;ATIVA;A-100/CENIPA/2023;NÃO;NULL;0;1;NÃO
81705;81705;81705;81705;81705;ACIDENTE;-5.036666666666;-42.83611111111;TERESINA;PI;BRASIL;SBTE;11/06/2023;14:10:00;SIM;ATIVA;A-099/CENIPA/2023;NÃO;NULL;0;1;NÃO
81704;81704;81704;81704;81704;INCIDENTE;-19.85194444444;-43.95055555555;BELO HORIZONTE;MG;BRASIL;SBBH;05/06/2023;11:15:00;SIM;FINALIZADA;***;NÃO;NULL;0;1;NÃO
81701;81701;81701;81701;81701;INCIDENTE;-21.13638888888;-47.77666666666;RIBEIRÃO PRETO;SP;BRASIL;SBRP;06/06/2023;11:26:00;SIM;FINALIZADA;***;NÃO;NULL;0;1;NÃO
81700;81700;81700;81700;81700;INCIDENTE;-18.89611111111;-41.98333333333;GOVERNADOR VALADARES;MG;BRASIL;SBGV;03/06/2023;12:08:00;SIM;FINALIZADA;***;NÃO;NULL;0;1;NÃO
81699;81699;81699;81699;81699;INCIDENTE;2.3377777777778;-62.89055555555;IRACEMA;RR;BRASIL;***;09/06/2023;14:55:00;SIM;FINALIZADA;***;NÃO;NULL;0;1;NÃO
81697;81697;81697;81697;81697;ACIDENTE;-7.645;-63.08833333333;HUMAITÁ;AM;BRASIL;***;05/06/2023;12:30:00;SIM;ATIVA;A-096/CENIPA/2023;NÃO;NULL;0;1;NÃO
81696;81696;81696;81696;81696;ACIDENTE;-15.10305555555;-53.36305555555;NOVO SÃO JOAQUIM;MT;BRASIL;***;03/06/2023;11:50:00;SIM;ATIVA;A-095/CENIPA/2023;NÃO;NULL;0;1;NÃO
81694;81694;81694;81694;81694;INCIDENTE;-15.87111111111;-47.91861111111;BRASÍLIA;DF;BRASIL;SBBR;31/05/2023;20:25:00;SIM;FINALIZADA;***;NÃO;NULL;0;1;NÃO
81693;81693;81693;81693;81693;INCIDENTE;-5.060555555555;-42.82444444444;TERESINA;PI;BRASIL;SBTE;04/06/2023;22:32:00;SIM;FINALIZADA;***;NÃO;NULL;0;1;NÃO
81692;81692;81692;81692;81692;ACIDENTE;-16.42638888888;-47.87444444444;LUZIÂNIA;GO;BRASIL;***;03/06/2023;11:00:00;SIM;ATIVA;A-094/CENIPA/2023;NÃO;NULL;0;1;NÃO
81691;81691;81691;81691;81691;ACIDENTE;-27.008056;-51.152222;VIDEIRA;SC;BRASIL;SSVI;05/06/2023;17:53:00;SIM;ATIVA;A-097/CENIPA/2023;NÃO;NULL;0;1;NÃO
81690;81690;81690;81690;81690;INCIDENTE;-22.81;-43.25055555555;RIO DE JANEIRO;RJ;BRASIL;SBGL;14/05/2023;09:35:00;SIM;FINALIZADA;***;NÃO;NULL;0;1;NÃO
81689;81689;81689;81689;81689;INCIDENTE;-22.9875;-43.37;RIO DE JANEIRO;RJ;BRASIL;SBJR;02/06/2023;10:05:00;SIM;FINALIZADA;***;NÃO;NULL;0;1;NÃO
81688;81688;81688;81688;81688;INCIDENTE GRAVE;-10.60083333333;-46.66833333333;MATEIROS;TO;BRASIL;***;28/05/2023;12:30:00;SIM;FINALIZADA;***;NÃO;NULL;0;1;NÃO
81686;81686;81686;81686;81686;INCIDENTE GRAVE;-12.20055555555;-38.90638888888;FEIRA DE SANTANA;BA;BRASIL;****;30/05/2023;14:00:00;SIM;FINALIZADA;***;NÃO;NULL;0;1;SIM
81685;81685;81685;81685;81685;ACIDENTE;-23.12833333333;-46.57472222222;ATIBAIA;SP;BRASIL;SDTB;30/05/2023;16:00:00;SIM;ATIVA;A-092/CENIPA/2023;NÃO;NULL;0;1;NÃO
81684;81684;81684;81684;81684;ACIDENTE;-5.287222222222;-48.61111111111;SÃO PEDRO DA ÁGUA BRANCA;MA;BRASIL;***;29/05/2023;21:15:00;NÃO;ATIVA;A-091/CENIPA/2023;NÃO;NULL;0;1;NÃO
81681;81681;81681;81681;81681;INCIDENTE;-22.91805555555;-42.82888888888;MARICÁ;RJ;BRASIL;SBMI;29/05/2023;01:59:00;SIM;FINALIZADA;***;NÃO;NULL;0;1;NÃO
81680;81680;81680;81680;81680;INCIDENTE;-15.87111111111;-47.91861111111;BRASÍLIA;DF;BRASIL;SBBR;28/05/2023;13:33:00;SIM;FINALIZADA;***;NÃO;NULL;0;1;NÃO
81679;81679;81679;81679;81679;ACIDENTE;-18.6475;-50.55444444444;QUIRINÓPOLIS;GO;BRASIL;SJQN;25/05/2023;14:40:00;NÃO;ATIVA;A-089/CENIPA/2023;NÃO;NULL;0;1;NÃO
81678;81678;81678;81678;81678;INCIDENTE GRAVE;-15.93722222222;-47.72722222222;BRASÍLIA;DF;BRASIL;SIQE;26/05/2023;20:40:00;SIM;ATIVA;IG-090/CENIPA/2023;NÃO;NULL;0;1;NÃO
81673;81673;81673;81673;81673;ACIDENTE;-14.71305555555;-45.52416666666;COCOS;BA;BRASIL;APUA;23/05/2023;19:40:00;SIM;ATIVA;A-088/CENIPA/2023;NÃO;NULL;0;1;NÃO
81672;81672;81672;81672;81672;INCIDENTE;-22.71055555555;-47.61944444444;PIRACICABA;SP;BRASIL;***;23/05/2023;17:35:00;SIM;ATIVA;A DEFINIR;NÃO;NULL;0;2;NÃO
81671;81671;81671;81671;81671;INCIDENTE;-23.00694444444;-47.13444444444;CAMPINAS;SP;BRASIL;SBKP;12/05/2023;14:22:00;SIM;FINALIZADA;***;NÃO;NULL;0;1;NÃO
81653;81653;81653;81653;81653;ACIDENTE;-25.44333333333;-49.58527777777;CAMPO LARGO;PR;BRASIL;***;21/05/2023;12:15:00;SIM;ATIVA;A-086/CENIPA/2023;NÃO;NULL;0;1;NÃO
81649;81649;81649;81649;81649;ACIDENTE;-1.861666666666;-44.87111111111;CURURUPU;MA;BRASIL;SD8H;21/05/2023;11:10:00;SIM;ATIVA;A-087/CENIPA/2023;NÃO;NULL;0;1;SIM
81633;81633;81633;81633;81633;ACIDENTE;***;***;BIRITIBA-MIRIM;SP;BRASIL;SDIH;11/07/2020;20:15:00;SIM;FINALIZADA;***;NÃO;NULL;0;1;NÃO
81624;81624;81624;81624;81624;ACIDENTE;-13.61555555555;-52.22444444444;CANARANA;MT;BRASIL;***;18/05/2023;11:25:00;SIM;ATIVA;A-085/CENIPA/2023;NÃO;NULL;0;1;NÃO
81623;81623;81623;81623;81623;ACIDENTE;-19.58416666666;-42.69388888888;JAGUARAÇU;MG;BRASIL;***;14/05/2023;11:50:00;NÃO;ATIVA;A-082/CENIPA/2023;NÃO;NULL;0;1;NÃO
81622;81622;81622;81622;81622;INCIDENTE;-20.42305555555;-40.3325;VILA VELHA;ES;BRASIL;SIVU;18/05/2023;14:02:00;SIM;FINALIZADA;***;NÃO;NULL;0;1;NÃO
81621;81621;81621;81621;81621;INCIDENTE GRAVE;***;***;SÃO DESIDÉRIO;BA;BRASIL;SDW6;16/05/2023;18:00:00;SIM;ATIVA;IG-083/CENIPA/2023;NÃO;NULL;0;1;SIM
81620;81620;81620;81620;81620;INCIDENTE;-6.743333333333;-66.93361111111;ITAMARATI;AM;BRASIL;***;15/05/2023;18:02:00;SIM;FINALIZADA;***;NÃO;NULL;0;1;NÃO
81618;81618;81618;81618;81618;INCIDENTE;-23.62611111111;-46.65638888888;SÃO PAULO;SP;BRASIL;SBSP;14/05/2023;22:39:00;SIM;FINALIZADA;***;NÃO;NULL;0;1;NÃO
81601;81601;81601;81601;81601;INCIDENTE;-16.6325;-49.22111111111;GOIÂNIA;GO;BRASIL;SBGO;15/05/2023;12:42:00;SIM;FINALIZADA;***;NÃO;NULL;0;1;NÃO
81597;81597;81597;81597;81597;INCIDENTE GRAVE;-17.83277777777;-50.95555555555;RIO VERDE;GO;BRASIL;SWLC;16/05/2023;14:00:00;SIM;ATIVA;IG-084/CENIPA/2023;NÃO;NULL;0;1;SIM
81587;81587;81587;81587;81587;INCIDENTE;-15.85111111111;-56.08777777777;SANTO ANTÔNIO DO LEVERGER;MT;BRASIL;SWLV;16/05/2023;16:17:00;SIM;FINALIZADA;***;NÃO;NULL;0;1;NÃO
81572;81572;81572;81572;81572;INCIDENTE;-19.07805555555;-48.12944444444;UBERLÂNDIA;MG;BRASIL;SNHD;11/05/2023;20:15:00;SIM;FINALIZADA;***;NÃO;NULL;0;1;NÃO
81570;81570;81570;81570;81570;INCIDENTE;***;***;NAVEGANTES;SC;BRASIL;SBNF;15/05/2023;12:50:00;SIM;FINALIZADA;***;NÃO;NULL;0;1;NÃO
81565;81565;81565;81565;81565;ACIDENTE;-11.34638888888;-52.27138888888;SÃO FÉLIX DO ARAGUAIA;MT;BRASIL;***;13/05/2023;11:30:00;SIM;ATIVA;A-081/CENIPA/2023;NÃO;NULL;0;1;NÃO
81564;81564;81564;81564;81564;INCIDENTE GRAVE;-15.39861111111;-54.97972222222;CAMPO VERDE;MT;BRASIL;***;13/05/2023;11:50:00;SIM;FINALIZADA;***;NÃO;NULL;0;1;SIM
81563;81563;81563;81563;81563;INCIDENTE;-23.62611111111;-46.65638888888;SÃO PAULO;SP;BRASIL;SBSP;14/05/2023;21:36:00;SIM;FINALIZADA;***;NÃO;NULL;0;1;NÃO
81562;81562;81562;81562;81562;INCIDENTE;-23.50666666666;-46.63388888888;SÃO PAULO;SP;BRASIL;SBMT;12/05/2023;20:59:00;SIM;FINALIZADA;***;NÃO;NULL;0;1;NÃO
81561;81561;81561;81561;81561;ACIDENTE;-7.346944444444;-46.62472222222;RIACHÃO;MA;BRASIL;SNRX;11/05/2023;13:14:00;NÃO;ATIVA;A-080/CENIPA/2023;NÃO;NULL;0;1;NÃO
81560;81560;81560;81560;81560;ACIDENTE;-3.860833333333;-46.09361111111;ALTO ALEGRE DO PINDARÉ;MA;BRASIL;***;11/05/2023;12:45:00;SIM;ATIVA;A-079/CENIPA/2023;NÃO;NULL;0;1;NÃO
81559;81559;81559;81559;81559;INCIDENTE;***;***;BELÉM;PA;BRASIL;SBBE;11/05/2023;12:40:00;SIM;FINALIZADA;***;NÃO;NULL;0;1;NÃO
81558;81558;81558;81558;81558;INCIDENTE;***;***;RIO DE JANEIRO;RJ;BRASIL;SBJR;11/05/2023;19:36:00;SIM;FINALIZADA;***;NÃO;NULL;0;1;NÃO
81557;81557;81557;81557;81557;INCIDENTE;***;***;PORTO ALEGRE;RS;BRASIL;SBPA;06/05/2023;14:08:00;SIM;FINALIZADA;***;NÃO;NULL;0;1;NÃO
81556;81556;81556;81556;81556;INCIDENTE;***;***;CAMPO GRANDE;MS;BRASIL;SSIE;11/05/2023;15:40:00;SIM;FINALIZADA;***;NÃO;NULL;0;1;NÃO
81553;81553;81553;81553;81553;INCIDENTE;***;***;PORTO ALEGRE;RS;BRASIL;SBPA;04/05/2023;12:59:00;SIM;FINALIZADA;***;NÃO;NULL;0;1;NÃO
81552;81552;81552;81552;81552;INCIDENTE GRAVE;***;***;SALVADOR;BA;BRASIL;SBSV;10/05/2023;04:35:00;SIM;ATIVA;IG-078/CENIPA/2023;NÃO;NULL;0;1;SIM
81551;81551;81551;81551;81551;ACIDENTE;***;***;LAGES;SC;BRASIL;SBLJ;05/05/2023;14:00:00;NÃO;ATIVA;A-075/CENIPA/2023;NÃO;NULL;0;1;NÃO
81550;81550;81550;81550;81550;INCIDENTE;-22.92083333333;-42.07138888888;CABO FRIO;RJ;BRASIL;SBCB;08/05/2023;10:00:00;SIM;FINALIZADA;***;NÃO;NULL;0;1;NÃO
81549;81549;81549;81549;81549;INCIDENTE;-2.586944444444;-44.23361111111;SÃO LUÍS;MA;BRASIL;SBSL;26/04/2023;06:33:00;SIM;FINALIZADA;***;NÃO;NULL;0;1;NÃO
81548;81548;81548;81548;81548;ACIDENTE;2.9427777777778;-60.91944444444;BOA VISTA;RR;BRASIL;***;06/05/2023;20:30:00;SIM;ATIVA;A-076/CENIPA/2023;NÃO;NULL;0;1;NÃO
81547;81547;81547;81547;81547;INCIDENTE;-23.43555555555;-46.47305555555;GUARULHOS;SP;BRASIL;SBGR;04/05/2023;15:12:00;SIM;FINALIZADA;***;NÃO;NULL;0;1;NÃO
81545;81545;81545;81545;81545;INCIDENTE;***;***;ARAÇATUBA;SP;BRASIL;SBAU;08/05/2023;23:30:00;SIM;FINALIZADA;***;NÃO;NULL;0;1;NÃO
81544;81544;81544;81544;81544;INCIDENTE;***;***;RIO DE JANEIRO;RJ;BRASIL;SBRJ;04/05/2023;20:23:00;SIM;FINALIZADA;***;NÃO;NULL;0;1;NÃO
81543;81543;81543;81543;81543;ACIDENTE;-20.42305555555;-40.3325;VILA VELHA;ES;BRASIL;SIVU;07/05/2023;12:10:00;SIM;ATIVA;A-077/CENIPA/2023;NÃO;NULL;0;1;NÃO
81542;81542;81542;81542;81542;INCIDENTE;***;***;AMERICANA;SP;BRASIL;***;05/05/2023;19:30:00;SIM;FINALIZADA;***;NÃO;NULL;0;1;NÃO
81541;81541;81541;81541;81541;INCIDENTE;***;***;BRAGANÇA PAULISTA;SP;BRASIL;SBBP;04/05/2023;19:09:00;SIM;FINALIZADA;***;NÃO;NULL;0;1;NÃO
81540;81540;81540;81540;81540;ACIDENTE;***;***;SÃO CARLOS;SP;BRASIL;***;03/05/2023;20:00:00;NÃO;ATIVA;A-074/CENIPA/2023;NÃO;NULL;0;1;NÃO
81539;81539;81539;81539;81539;ACIDENTE;-14.88722222222;-53.87138888888;SANTO ANTÔNIO DO LESTE;MT;BRASIL;***;29/04/2023;14:30:00;NÃO;ATIVA;A-068/CENIPA/2023;NÃO;NULL;0;1;NÃO
81538;81538;81538;81538;81538;ACIDENTE;***;***;PARAGOMINAS;PA;BRASIL;***;01/05/2023;16:48:00;NÃO;ATIVA;A-072/CENIPA/2023;NÃO;NULL;0;1;NÃO
81537;81537;81537;81537;81537;INCIDENTE;***;***;BAURU;SP;BRASIL;SBBU;30/04/2023;16:20:00;SIM;FINALIZADA;***;NÃO;NULL;0;1;SIM
81536;81536;81536;81536;81536;ACIDENTE;***;***;BRAGANÇA PAULISTA;SP;BRASIL;***;30/04/2023;17:10:00;NÃO;ATIVA;A-070/CENIPA/2023;NÃO;NULL;0;1;NÃO
81531;81531;81531;81531;81531;ACIDENTE;-2.513333333333;-44.02444444444;SÃO JOSÉ DE RIBAMAR;MA;BRASIL;***;01/05/2023;16:40:00;NÃO;ATIVA;A-073/CENIPA/2023;NÃO;NULL;0;1;NÃO
81529;81529;81529;81529;81529;ACIDENTE;-12.71527777777;-60.20194444444;VILHENA;RO;BRASIL;****;30/04/2023;21:00:00;SIM;ATIVA;A-071/CENIPA/2023;NÃO;NULL;0;1;SIM
81528;81528;81528;81528;81528;INCIDENTE;-15.65;-56.1175;CUIABÁ;MT;BRASIL;SBCY;17/04/2023;09:41:00;SIM;FINALIZADA;***;NÃO;NULL;0;1;NÃO
81527;81527;81527;81527;81527;ACIDENTE;***;***;BONFINÓPOLIS DE MINAS;MG;BRASIL;****;29/04/2023;20:40:00;SIM;ATIVA;A-069/CENIPA/2023;NÃO;NULL;0;1;NÃO
81526;81526;81526;81526;81526;INCIDENTE GRAVE;-15.65;-56.1175;CUIABÁ;MT;BRASIL;SBCY;30/04/2023;14:00:00;SIM;FINALIZADA;***;NÃO;NULL;0;1;NÃO
81525;81525;81525;81525;81525;ACIDENTE;-22.95166666666;-46.35722222222;JOANÓPOLIS;SP;BRASIL;***;28/04/2023;18:15:00;SIM;ATIVA;A-067/CENIPA/2023;NÃO;NULL;0;1;NÃO
81524;81524;81524;81524;81524;INCIDENTE;***;***;BRASÍLIA;DF;BRASIL;SBBR;29/04/2023;00:30:00;SIM;FINALIZADA;***;NÃO;NULL;0;1;NÃO
81523;81523;81523;81523;81523;INCIDENTE;-23.00694444444;-47.13444444444;CAMPINAS;SP;BRASIL;SBKP;24/03/2023;15:16:00;SIM;FINALIZADA;***;NÃO;NULL;0;1;NÃO
81522;81522;81522;81522;81522;ACIDENTE;-2.4525;-44.12833333333;RAPOSA;MA;BRASIL;***;27/04/2023;19:20:00;NÃO;ATIVA;A-066/CENIPA/2023;NÃO;NULL;0;1;NÃO
81512;81512;81512;81512;81512;INCIDENTE;-23.00694444444;-47.13444444444;CAMPINAS;SP;BRASIL;SBKP;13/04/2023;07:05:00;SIM;FINALIZADA;***;NÃO;NULL;0;1;NÃO
81499;81499;81499;81499;81499;INCIDENTE;***;***;SÃO JOSÉ;SC;BRASIL;SSKT;10/04/2023;18:50:00;SIM;FINALIZADA;***;NÃO;NULL;0;2;NÃO
81498;81498;81498;81498;81498;ACIDENTE;***;***;BURITIS;MG;BRASIL;****;19/04/2023;19:23:00;SIM;ATIVA;A-064/CENIPA/2023;NÃO;NULL;0;1;NÃO
81497;81497;81497;81497;81497;INCIDENTE;-23.18166666666;-46.94361111111;JUNDIAÍ;SP;BRASIL;SBJD;12/04/2023;23:46:00;SIM;FINALIZADA;***;NÃO;NULL;0;1;NÃO
81496;81496;81496;81496;81496;INCIDENTE;-19.62444444444;-43.97194444444;CONFINS;MG;BRASIL;SBCF;15/04/2023;00:26:00;SIM;FINALIZADA;***;NÃO;NULL;0;1;NÃO
81494;81494;81494;81494;81494;INCIDENTE;-20.42305555555;-40.3325;VILA VELHA;ES;BRASIL;SIVU;16/04/2023;15:18:00;SIM;FINALIZADA;***;NÃO;NULL;0;1;NÃO
81493;81493;81493;81493;81493;INCIDENTE;-23.00694444444;-47.13444444444;CAMPINAS;SP;BRASIL;SBKP;12/04/2023;07:51:00;SIM;FINALIZADA;***;NÃO;NULL;0;1;NÃO
81490;81490;81490;81490;81490;INCIDENTE;***;***;RIBEIRÃO PRETO;SP;BRASIL;SBRP;23/04/2023;21:26:00;SIM;FINALIZADA;***;NÃO;NULL;0;1;NÃO
81489;81489;81489;81489;81489;ACIDENTE;-5.672222222222;-54.255;ALTAMIRA;PA;BRASIL;***;23/04/2023;11:44:00;NÃO;ATIVA;A-065/CENIPA/2023;NÃO;NULL;0;1;NÃO
81488;81488;81488;81488;81488;INCIDENTE GRAVE;***;***;CORUMBÁ;MS;BRASIL;SDQ4;22/04/2023;11:15:00;SIM;FINALIZADA;***;NÃO;NULL;0;1;NÃO
81487;81487;81487;81487;81487;INCIDENTE;-15.65;-56.1175;CUIABÁ;MT;BRASIL;SBCY;15/04/2023;09:41:00;SIM;FINALIZADA;***;NÃO;NULL;0;1;NÃO
81486;81486;81486;81486;81486;INCIDENTE;***;***;RIO DE JANEIRO;RJ;BRASIL;SBJR;17/04/2023;20:30:00;SIM;FINALIZADA;***;NÃO;NULL;0;1;NÃO
81484;81484;81484;81484;81484;INCIDENTE;***;***;RECIFE;PE;BRASIL;SBRF;07/04/2023;11:21:00;SIM;FINALIZADA;***;NÃO;NULL;0;1;NÃO
81483;81483;81483;81483;81483;ACIDENTE;-9.060833333333;-69.59194444444;MANOEL URBANO;AC;BRASIL;***;18/04/2023;18:30:00;SIM;ATIVA;A-063/CENIPA/2023;NÃO;NULL;0;1;NÃO
81482;81482;81482;81482;81482;INCIDENTE GRAVE;***;***;CAMPO GRANDE;MS;BRASIL;SSQQ;17/04/2023;18:00:00;SIM;FINALIZADA;***;NÃO;NULL;0;1;SIM
81481;81481;81481;81481;81481;INCIDENTE;***;***;PORTO ALEGRE;RS;BRASIL;SBPA;08/04/2023;14:20:00;SIM;FINALIZADA;***;NÃO;NULL;0;1;NÃO
81480;81480;81480;81480;81480;INCIDENTE;-18.88361111111;-48.22527777777;UBERLÂNDIA;MG;BRASIL;SBUL;17/04/2023;15:54:00;SIM;FINALIZADA;***;NÃO;NULL;0;1;NÃO
81479;81479;81479;81479;81479;ACIDENTE;-12.77166666666;-56.72694444444;TAPURAH;MT;BRASIL;APUA;14/04/2023;16:00:00;SIM;ATIVA;A-062/CENIPA/2023;NÃO;NULL;0;1;NÃO
81478;81478;81478;81478;81478;INCIDENTE;-15.5625;-54.33055555555;PRIMAVERA DO LESTE;MT;BRASIL;SWPY;12/04/2023;12:45:00;SIM;FINALIZADA;***;NÃO;NULL;0;2;NÃO
81477;81477;81477;81477;81477;INCIDENTE;***;***;BARRETOS;SP;BRASIL;SNBA;14/04/2023;20:33:00;SIM;FINALIZADA;***;NÃO;NULL;0;1;NÃO
81476;81476;81476;81476;81476;ACIDENTE;-13.9;-56.98416666666;DIAMANTINO;MT;BRASIL;APUA;13/04/2023;14:10:00;SIM;ATIVA;A-061/CENIPA/2023;NÃO;NULL;0;1;NÃO
81474;81474;81474;81474;81474;INCIDENTE GRAVE;***;***;CASA NOVA;BA;BRASIL;***;14/04/2023;11:00:00;SIM;FINALIZADA;***;NÃO;NULL;0;1;NÃO
81472;81472;81472;81472;81472;INCIDENTE GRAVE;-22.66694444444;-41.9975;CABO FRIO;RJ;BRASIL;***;12/04/2023;15:00:00;SIM;FINALIZADA;***;NÃO;NULL;0;1;NÃO
81470;81470;81470;81470;81470;INCIDENTE;***;***;SANTA MARIA;RS;BRASIL;***;05/04/2023;14:00:00;SIM;FINALIZADA;***;NÃO;NULL;0;1;NÃO
81469;81469;81469;81469;81469;INCIDENTE;-23.00694444444;-47.13444444444;CAMPINAS;SP;BRASIL;SBKP;01/04/2023;21:10:00;SIM;FINALIZADA;***;NÃO;NULL;0;1;NÃO
81468;81468;81468;81468;81468;INCIDENTE;***;***;LONDRINA;PR;BRASIL;SBLO;13/04/2023;13:20:00;SIM;FINALIZADA;***;NÃO;NULL;0;1;NÃO
81467;81467;81467;81467;81467;INCIDENTE;-5.768888888888;-35.36638888888;SÃO GONÇALO DO AMARANTE;RN;BRASIL;SBSG;12/04/2023;08:46:00;SIM;FINALIZADA;***;NÃO;NULL;0;1;NÃO
81466;81466;81466;81466;81466;INCIDENTE GRAVE;-18.62111111111;-52.83305555555;CHAPADÃO DO CÉU;GO;BRASIL;SBOQ;11/04/2023;12:00:00;SIM;FINALIZADA;***;NÃO;NULL;0;1;SIM
81465;81465;81465;81465;81465;INCIDENTE;-23.43555555555;-48.43972222222;SÃO PAULO;SP;BRASIL;SBGR;09/04/2023;14:15:00;SIM;FINALIZADA;***;NÃO;NULL;0;1;NÃO
81464;81464;81464;81464;81464;INCIDENTE;***;***;RIO DE JANEIRO;RJ;BRASIL;9PKD;09/04/2023;18:09:00;SIM;FINALIZADA;***;NÃO;NULL;0;1;NÃO
81462;81462;81462;81462;81462;INCIDENTE;***;***;SALVADOR;BA;BRASIL;SBSV;31/03/2023;09:12:00;SIM;FINALIZADA;***;NÃO;NULL;0;1;NÃO
81460;81460;81460;81460;81460;INCIDENTE;***;***;PORTO ALEGRE;RS;BRASIL;SBPA;29/03/2023;18:02:00;SIM;FINALIZADA;***;NÃO;NULL;0;1;NÃO
81459;81459;81459;81459;81459;INCIDENTE;***;***;CAMPO GRANDE;MS;BRASIL;SBCG;06/04/2023;12:45:00;SIM;FINALIZADA;***;NÃO;NULL;0;1;NÃO
81457;81457;81457;81457;81457;INCIDENTE;-11.63194444444;-50.68833333333;SÃO FÉLIX DO ARAGUAIA;MT;BRASIL;SWFX;09/04/2023;12:20:00;SIM;FINALIZADA;***;NÃO;NULL;0;1;NÃO
81456;81456;81456;81456;81456;ACIDENTE;***;***;CHAPECÓ;SC;BRASIL;***;04/04/2023;21:36:00;SIM;ATIVA;A-060/CENIPA/2023;NÃO;NULL;0;1;NÃO
81455;81455;81455;81455;81455;INCIDENTE;2.8352777777778;-63.64694444444;ALTO ALEGRE;RR;BRASIL;SWUQ;04/04/2023;19:20:00;SIM;FINALIZADA;***;NÃO;NULL;0;1;NÃO
81437;81437;81437;81437;81437;INCIDENTE;***;***;RIO DE JANEIRO;RJ;BRASIL;SBGL;25/03/2023;11:55:00;SIM;FINALIZADA;***;NÃO;NULL;0;1;NÃO
81426;81426;81426;81426;81426;ACIDENTE;***;***;CANELA;RS;BRASIL;SSCN;31/03/2023;13:00:00;SIM;ATIVA;A-058/CENIPA/2023;NÃO;NULL;0;1;SIM
81424;81424;81424;81424;81424;ACIDENTE;***;***;MASSARANDUBA;SC;BRASIL;***;29/03/2023;11:40:00;SIM;ATIVA;A-056/CENIPA/2023;NÃO;NULL;0;1;NÃO
81422;81422;81422;81422;81422;INCIDENTE;-23.43555555555;-46.47305555555;SÃO PAULO;SP;BRASIL;SBGR;27/03/2023;21:24:00;SIM;FINALIZADA;***;NÃO;NULL;0;1;NÃO
81420;81420;81420;81420;81420;INCIDENTE;-20.42277777777;-40.31833333333;VILA VELHA;ES;BRASIL;SIVU;01/04/2023;19:22:00;SIM;FINALIZADA;***;NÃO;NULL;0;1;NÃO
81416;81416;81416;81416;81416;INCIDENTE GRAVE;-23.615;-46.66472222222;SÃO PAULO;SP;BRASIL;SBSP;10/05/2022;21:24:00;SIM;ATIVA;IG-057/CENIPA/2023;NÃO;NULL;0;2;NÃO
81414;81414;81414;81414;81414;INCIDENTE;***;***;BELO HORIZONTE;MG;BRASIL;SBBH;30/03/2023;13:00:00;SIM;FINALIZADA;***;NÃO;NULL;0;1;NÃO
81413;81413;81413;81413;81413;ACIDENTE;-15.89944444444;-52.24083333333;ARAGARÇAS;GO;BRASIL;SJVO;31/03/2023;13:15:00;SIM;ATIVA;A-059/CENIPA/2023;NÃO;NULL;0;1;NÃO
81412;81412;81412;81412;81412;INCIDENTE;-16.66111111111;-49.34583333333;GOIÂNIA;GO;BRASIL;***;30/03/2023;19:45:00;SIM;FINALIZADA;***;NÃO;NULL;0;1;NÃO
81411;81411;81411;81411;81411;INCIDENTE;***;***;BELÉM;PA;BRASIL;SBBE;30/03/2023;18:58:00;SIM;FINALIZADA;***;NÃO;NULL;0;1;NÃO
81409;81409;81409;81409;81409;INCIDENTE;-23.47777777777;-47.49;SOROCABA;SP;BRASIL;SDCO;17/01/2023;17:18:00;SIM;FINALIZADA;***;NÃO;NULL;0;1;NÃO
81407;81407;81407;81407;81407;INCIDENTE;-23.00694444444;-47.13444444444;CAMPINAS;SP;BRASIL;SBKP;23/03/2023;20:43:00;SIM;FINALIZADA;***;NÃO;NULL;0;1;NÃO
81405;81405;81405;81405;81405;INCIDENTE;-20.24027777777;-40.44;CARIACICA;ES;BRASIL;***;29/03/2023;13:18:00;SIM;FINALIZADA;***;NÃO;NULL;0;1;NÃO
81404;81404;81404;81404;81404;INCIDENTE;***;***;BRASÍLIA;DF;BRASIL;SBBR;21/03/2023;20:46:00;SIM;FINALIZADA;***;NÃO;NULL;0;1;NÃO
81403;81403;81403;81403;81403;ACIDENTE;2.8666666666667;-60.68666666666;BOA VISTA;RR;BRASIL;***;25/03/2023;19:00:00;SIM;ATIVA;A DEFINIR;NÃO;NULL;0;1;NÃO
81402;81402;81402;81402;81402;ACIDENTE;-19.24;-48.29333333333;UBERABA;MG;BRASIL;****;24/03/2023;21:30:00;SIM;ATIVA;A-053/CENIPA/2023;NÃO;NULL;0;1;NÃO
81401;81401;81401;81401;81401;ACIDENTE;-12.09666666666;-55.82722222222;SORRISO;MT;BRASIL;****;24/03/2023;19:00:00;SIM;ATIVA;A-055/CENIPA/2023;NÃO;NULL;0;1;SIM
81398;81398;81398;81398;81398;ACIDENTE;-29.72111111111;-52.19444444444;PASSO DO SOBRADO;RS;BRASIL;APUA;23/03/2023;11:20:00;SIM;ATIVA;A-050/CENIPA/2023;NÃO;NULL;0;1;SIM
81397;81397;81397;81397;81397;INCIDENTE;-23.62611111111;-46.65638888888;SÃO PAULO;SP;BRASIL;SBSP;20/03/2023;12:35:00;SIM;FINALIZADA;***;NÃO;NULL;0;1;NÃO
81396;81396;81396;81396;81396;ACIDENTE;-11.63305555555;-57.12055555555;PORTO DOS GAÚCHOS;MT;BRASIL;****;22/03/2023;14:20:00;SIM;ATIVA;A-051/CENIPA/2023;NÃO;NULL;0;1;NÃO
81395;81395;81395;81395;81395;ACIDENTE;-12.90611111111;-55.30722222222;NOVA UBIRATÃ;MT;BRASIL;***;22/03/2023;16:30:00;SIM;ATIVA;A-048/CENIPA/2023;NÃO;NULL;0;1;NÃO
81394;81394;81394;81394;81394;ACIDENTE;-16.61805555555;-49.355;GOIÂNIA;GO;BRASIL;***;22/03/2023;20:07:00;NÃO;ATIVA;A-049/CENIPA/2023;NÃO;NULL;0;1;NÃO
81393;81393;81393;81393;81393;ACIDENTE;***;***;CONCEIÇÃO DO ARAGUAIA;PA;BRASIL;***;24/03/2023;19:35:00;NÃO;ATIVA;A-054/CENIPA/2023;NÃO;NULL;0;1;NÃO
81392;81392;81392;81392;81392;INCIDENTE;-23.50666666666;-46.63388888888;SÃO PAULO;SP;BRASIL;SBMT;24/03/2023;14:15:00;SIM;FINALIZADA;***;NÃO;NULL;0;1;NÃO
81391;81391;81391;81391;81391;ACIDENTE;***;***;CACONDE;SP;BRASIL;***;23/03/2023;12:30:00;SIM;ATIVA;A-052/CENIPA/2023;NÃO;NULL;0;1;NÃO
81390;81390;81390;81390;81390;INCIDENTE;***;***;GLORINHA;RS;BRASIL;***;27/01/2023;19:15:00;SIM;FINALIZADA;***;NÃO;NULL;0;1;NÃO
81388;81388;81388;81388;81388;ACIDENTE;***;***;CORUPÁ;SC;BRASIL;***;21/03/2023;13:30:00;SIM;ATIVA;A-047/CENIPA/2023;NÃO;NULL;0;1;NÃO
81387;81387;81387;81387;81387;INCIDENTE;-4.628611111111;-65.41777777777;TEFÉ;AM;BRASIL;****;20/03/2023;17:00:00;SIM;FINALIZADA;***;NÃO;NULL;0;1;NÃO
81386;81386;81386;81386;81386;ACIDENTE;-10.18222222222;-48.53861111111;PORTO NACIONAL;TO;BRASIL;SWEJ;18/03/2023;17:00:00;SIM;ATIVA;A-046/CENIPA/2023;NÃO;NULL;0;1;NÃO
81385;81385;81385;81385;81385;ACIDENTE;-23.52194444444;-46.65611111111;SÃO PAULO;SP;BRASIL;***;17/03/2023;17:30:00;NÃO;ATIVA;A-045/CENIPA/2023;NÃO;NULL;0;1;NÃO
81384;81384;81384;81384;81384;INCIDENTE;***;***;PARAGOMINAS;PA;BRASIL;***;03/03/2023;13:00:00;SIM;FINALIZADA;***;NÃO;NULL;0;1;NÃO
81383;81383;81383;81383;81383;INCIDENTE;-15.65;-56.1175;CUIABÁ;MT;BRASIL;SBCY;17/03/2023;17:55:00;SIM;FINALIZADA;***;NÃO;NULL;0;1;NÃO
81382;81382;81382;81382;81382;INCIDENTE GRAVE;-17.83472222222;-50.95611111111;RIO VERDE;GO;BRASIL;SWLC;15/03/2023;12:50:00;SIM;FINALIZADA;***;NÃO;NULL;0;1;SIM
81381;81381;81381;81381;81381;INCIDENTE;-23.62611111111;-46.65638888888;SÃO PAULO;SP;BRASIL;SBSP;06/03/2023;22:26:00;SIM;FINALIZADA;***;NÃO;NULL;0;1;NÃO
81380;81380;81380;81380;81380;INCIDENTE;-23.62611111111;-46.65638888888;SÃO PAULO;SP;BRASIL;SBSP;13/02/2023;16:02:00;SIM;FINALIZADA;***;NÃO;NULL;0;1;NÃO
81379;81379;81379;81379;81379;ACIDENTE;-11.51166666666;-56.6375;PORTO DOS GAÚCHOS;MT;BRASIL;***;13/03/2023;13:30:00;SIM;ATIVA;A-044/CENIPA/2023;NÃO;NULL;0;1;NÃO
81377;81377;81377;81377;81377;INCIDENTE;***;***;MACAÉ;RJ;BRASIL;SBME;06/03/2023;15:10:00;SIM;FINALIZADA;***;NÃO;NULL;0;1;NÃO
81376;81376;81376;81376;81376;INCIDENTE;-19.91555555555;-43.73944444444;SABARÁ;MG;BRASIL;***;11/03/2023;14:45:00;NÃO;ATIVA;A-042/CENIPA/2023;NÃO;NULL;0;1;NÃO
81374;81374;81374;81374;81374;INCIDENTE;-16.70611111111;-43.82194444444;MONTES CLAROS;MG;BRASIL;SBMK;25/02/2023;18:10:00;SIM;FINALIZADA;***;NÃO;NULL;0;1;NÃO
81373;81373;81373;81373;81373;INCIDENTE;-23.18166666666;-46.94361111111;JUNDIAÍ;SP;BRASIL;SBJD;12/03/2023;22:48:00;SIM;FINALIZADA;***;NÃO;NULL;0;1;NÃO
81372;81372;81372;81372;81372;INCIDENTE;-25.53166666666;-49.17611111111;CURITIBA;PR;BRASIL;SBCT;04/03/2023;14:07:00;SIM;FINALIZADA;***;NÃO;NULL;0;1;NÃO
81371;81371;81371;81371;81371;INCIDENTE;***;***;RIO DE JANEIRO;RJ;BRASIL;***;01/03/2023;19:30:00;SIM;FINALIZADA;***;NÃO;NULL;0;1;NÃO
81370;81370;81370;81370;81370;INCIDENTE;***;***;BRASÍLIA;DF;BRASIL;SBBR;11/03/2023;22:30:00;SIM;FINALIZADA;***;NÃO;NULL;0;1;NÃO
81369;81369;81369;81369;81369;INCIDENTE;-15.65;-56.1175;CUIABÁ;MT;BRASIL;SBCY;07/03/2023;11:20:00;SIM;FINALIZADA;***;NÃO;NULL;0;1;NÃO
81368;81368;81368;81368;81368;INCIDENTE;-19.62444444444;-43.97194444444;CONFINS;MG;BRASIL;SBCF;04/03/2023;10:10:00;SIM;FINALIZADA;***;NÃO;NULL;0;1;NÃO
81366;81366;81366;81366;81366;ACIDENTE;-11.39111111111;-58.8075;JUÍNA;MT;BRASIL;SWJN;03/03/2023;11:00:00;SIM;ATIVA;A-041/CENIPA/2023;NÃO;NULL;0;1;NÃO
81365;81365;81365;81365;81365;ACIDENTE;***;***;BELO HORIZONTE;MG;BRASIL;SBPR;11/03/2023;17:35:00;NÃO;ATIVA;A-043/CENIPA/2023;NÃO;NULL;0;1;SIM
81363;81363;81363;81363;81363;INCIDENTE;***;***;BELÉM;PA;BRASIL;SBBE;01/03/2023;11:56:00;SIM;FINALIZADA;***;NÃO;NULL;0;1;NÃO
81362;81362;81362;81362;81362;INCIDENTE;-23.62611111111;-46.65638888888;SÃO PAULO;SP;BRASIL;SBSP;12/03/2023;23:30:00;SIM;FINALIZADA;***;NÃO;NULL;0;1;NÃO
81361;81361;81361;81361;81361;INCIDENTE;-10.29;-48.35777777777;PALMAS;TO;BRASIL;SBPJ;12/03/2023;16:35:00;SIM;FINALIZADA;***;NÃO;NULL;0;1;NÃO
81359;81359;81359;81359;81359;INCIDENTE;***;***;RIO DE JANEIRO;RJ;BRASIL;****;26/02/2023;17:20:00;SIM;FINALIZADA;***;NÃO;NULL;0;1;NÃO
81358;81358;81358;81358;81358;INCIDENTE;***;***;PARAGUAÇU PAULISTA;SP;BRASIL;***;07/03/2023;13:15:00;SIM;FINALIZADA;***;NÃO;NULL;0;1;NÃO
81355;81355;81355;81355;81355;INCIDENTE;***;***;BRASÍLIA;DF;BRASIL;SBBR;28/02/2023;15:03:00;SIM;FINALIZADA;***;NÃO;NULL;0;1;NÃO
81354;81354;81354;81354;81354;ACIDENTE;-5.522222222222;-59.54305555555;NOVO ARIPUANÃ;AM;BRASIL;***;21/02/2023;10:30:00;SIM;ATIVA;A-040/CENIPA/2023;NÃO;NULL;0;1;NÃO
81353;81353;81353;81353;81353;ACIDENTE;-16.63277777777;-49.24333333333;GOIÂNIA;GO;BRASIL;***;28/02/2023;19:40:00;SIM;ATIVA;A-039/CENIPA/2023;NÃO;NULL;0;1;NÃO
81350;81350;81350;81350;81350;INCIDENTE;-19.62444444444;-43.97194444444;CONFINS;MG;BRASIL;SBCF;27/02/2023;09:17:00;SIM;FINALIZADA;***;NÃO;NULL;0;1;NÃO
81349;81349;81349;81349;81349;ACIDENTE;-23.00611111111;-45.68055555555;TAUBATÉ;SP;BRASIL;****;27/02/2023;13:30:00;SIM;ATIVA;A-038/CENIPA/2023;NÃO;NULL;0;1;NÃO
81348;81348;81348;81348;81348;INCIDENTE GRAVE;-22.82833333333;-47.11777777777;CAMPINAS;SP;BRASIL;***;27/02/2023;15:00:00;SIM;FINALIZADA;***;NÃO;NULL;0;1;NÃO
81347;81347;81347;81347;81347;ACIDENTE;***;***;NAVIRAÍ;MS;BRASIL;****;25/02/2023;15:30:00;SIM;ATIVA;A-037/CENIPA/2023;NÃO;NULL;0;1;NÃO
81346;81346;81346;81346;81346;INCIDENTE;***;***;BRAGANÇA PAULISTA;SP;BRASIL;SBBP;26/02/2023;21:57:00;SIM;FINALIZADA;***;NÃO;NULL;0;1;NÃO
81345;81345;81345;81345;81345;ACIDENTE;-20.69972222222;-49.60222222222;TANABI;SP;BRASIL;****;22/02/2023;21:00:00;SIM;ATIVA;A-035/CENIPA/2023;NÃO;NULL;0;1;NÃO
81344;81344;81344;81344;81344;INCIDENTE;***;***;BELÉM;PA;BRASIL;SBBE;20/02/2023;20:29:00;SIM;FINALIZADA;***;NÃO;NULL;0;1;NÃO
81343;81343;81343;81343;81343;INCIDENTE;2.7872222222222;-60.59583333333;CANTÁ;RR;BRASIL;SWPD;23/02/2023;21:54:00;SIM;FINALIZADA;***;NÃO;NULL;0;1;NÃO
81342;81342;81342;81342;81342;ACIDENTE;-25.1125;-48.80166666666;CAMPINA GRANDE DO SUL;PR;BRASIL;***;15/02/2023;17:45:00;SIM;ATIVA;A-026/CENIPA/2023;NÃO;NULL;0;1;NÃO
81341;81341;81341;81341;81341;INCIDENTE;-23.43555555555;-46.47305555555;GUARULHOS;SP;BRASIL;SBGR;25/02/2023;14:00:00;SIM;FINALIZADA;***;NÃO;NULL;0;1;NÃO
81340;81340;81340;81340;81340;ACIDENTE;***;***;SÃO BORJA;RS;BRASIL;APUA;22/02/2023;21:20:00;SIM;ATIVA;A-036/CENIPA/2023;NÃO;NULL;0;1;NÃO
81339;81339;81339;81339;81339;ACIDENTE;***;***;AMERICANA;SP;BRASIL;***;18/02/2023;14:30:00;SIM;ATIVA;A-031/CENIPA/2023;NÃO;NULL;0;1;NÃO
81338;81338;81338;81338;81338;INCIDENTE;-2.586944444444;-44.23611111111;SÃO LUÍS;MA;BRASIL;SBSL;18/02/2023;14:30:00;SIM;FINALIZADA;***;NÃO;NULL;0;1;NÃO
81337;81337;81337;81337;81337;ACIDENTE;***;***;NOVO PROGRESSO;PA;BRASIL;SJNP;18/02/2023;15:30:00;NÃO;FINALIZADA;***;NÃO;NULL;0;1;NÃO
81336;81336;81336;81336;81336;ACIDENTE;***;***;CORUMBÁ;MS;BRASIL;****;21/02/2023;19:00:00;SIM;ATIVA;A-034/CENIPA/2023;NÃO;NULL;0;1;NÃO
81335;81335;81335;81335;81335;INCIDENTE GRAVE;-2.985555555555;-48.89;TAILÂNDIA;PA;BRASIL;****;16/02/2023;19:00:00;SIM;FINALIZADA;NULL;NÃO;NULL;0;1;NÃO
81334;81334;81334;81334;81334;ACIDENTE;-19.89055555555;-44.05666666666;CONTAGEM;MG;BRASIL;***;19/02/2023;12:30:00;SIM;ATIVA;A-032/CENIPA/2023;NÃO;NULL;0;1;NÃO
81332;81332;81332;81332;81332;INCIDENTE;-16.6325;-49.22111111111;GOIÂNIA;GO;BRASIL;SBGO;08/02/2023;10:30:00;SIM;FINALIZADA;***;NÃO;NULL;0;1;NÃO
81330;81330;81330;81330;81330;INCIDENTE;-3.250833333333;-52.25222222222;ALTAMIRA;PA;BRASIL;SBHT;17/02/2023;16:32:00;SIM;FINALIZADA;***;NÃO;NULL;0;1;NÃO
81329;81329;81329;81329;81329;INCIDENTE;***;***;BRASÍLIA;DF;BRASIL;SBBR;09/02/2023;15:10:00;SIM;FINALIZADA;***;NÃO;NULL;0;1;NÃO
81328;81328;81328;81328;81328;ACIDENTE;-18.450555;50.405833;QUIRINÓPOLIS;GO;BRASIL;***;14/02/2023;11:50:00;SIM;ATIVA;A-027/CENIPA/2023;NÃO;NULL;0;1;NÃO
81327;81327;81327;81327;81327;ACIDENTE;-31.94777777777;-52.675;PEDRO OSÓRIO;RS;BRASIL;APUA;20/02/2023;15:20:00;SIM;ATIVA;A-033/CENIPA/2023;NÃO;NULL;0;1;NÃO
81326;81326;81326;81326;81326;INCIDENTE;-23.00694444444;-47.13444444444;CAMPINAS;SP;BRASIL;SBKP;14/02/2023;08:42:00;SIM;FINALIZADA;***;NÃO;NULL;0;1;NÃO
81325;81325;81325;81325;81325;INCIDENTE;-21.52305555555;-48.33138888888;DOBRADA;SP;BRASIL;***;18/02/2023;14:50:00;SIM;FINALIZADA;***;NÃO;NULL;0;1;NÃO
81323;81323;81323;81323;81323;INCIDENTE GRAVE;***;***;SÃO JOSÉ DOS CAMPOS;SP;BRASIL;SBSJ;16/02/2023;12:19:00;SIM;FINALIZADA;***;NÃO;NULL;0;1;SIM
81322;81322;81322;81322;81322;ACIDENTE;-17.5787;-52.5424;MINEIROS;GO;BRASIL;****;15/02/2023;14:00:00;SIM;ATIVA;A-028/CENIPA/2023;NÃO;NULL;0;1;SIM
81321;81321;81321;81321;81321;INCIDENTE;2.7836111111111;-60.58777777777;CANTÁ;RR;BRASIL;SWPD;11/02/2023;16:33:00;SIM;FINALIZADA;***;NÃO;NULL;0;1;NÃO
81320;81320;81320;81320;81320;ACIDENTE;***;***;SANTA VITÓRIA DO PALMAR;RS;BRASIL;***;16/02/2023;11:00:00;SIM;ATIVA;A-030/CENIPA/2023;NÃO;NULL;0;1;NÃO
81319;81319;81319;81319;81319;INCIDENTE;3.2930555555556;-61.20166666666;BOA VISTA;RR;BRASIL;***;13/02/2023;17:20:00;SIM;FINALIZADA;***;NÃO;NULL;0;1;NÃO
81318;81318;81318;81318;81318;INCIDENTE;-25.00222222222;-53.50194444444;CASCAVEL;PR;BRASIL;SBCA;08/02/2023;11:57:00;SIM;FINALIZADA;***;NÃO;NULL;0;1;NÃO
81317;81317;81317;81317;81317;INCIDENTE;***;***;FLORIANÓPOLIS;SC;BRASIL;***;06/02/2023;21:00:00;SIM;FINALIZADA;***;NÃO;NULL;0;1;NÃO
81316;81316;81316;81316;81316;INCIDENTE GRAVE;-16.97805555555;-50.94416666666;PARAÚNA;GO;BRASIL;***;14/02/2023;12:00:00;SIM;FINALIZADA;***;NÃO;NULL;0;1;NÃO
81315;81315;81315;81315;81315;INCIDENTE;***;***;MANAUS;AM;BRASIL;SWFN;19/12/2022;20:00:00;SIM;FINALIZADA;***;NÃO;NULL;0;1;NÃO
81314;81314;81314;81314;81314;INCIDENTE GRAVE;-31.67527777777;-52.25638888888;PELOTAS;RS;BRASIL;APUA;13/02/2023;20:40:00;SIM;FINALIZADA;***;NÃO;NULL;0;1;NÃO
81313;81313;81313;81313;81313;INCIDENTE;***;***;UMUARAMA;PR;BRASIL;SSUM;11/02/2023;10:15:00;SIM;FINALIZADA;***;NÃO;NULL;0;1;NÃO
81311;81311;81311;81311;81311;INCIDENTE GRAVE;***;***;CANELA;RS;BRASIL;SSCN;11/02/2023;19:10:00;SIM;FINALIZADA;***;NÃO;NULL;0;1;SIM
81310;81310;81310;81310;81310;INCIDENTE GRAVE;***;***;SANTA VITÓRIA DO PALMAR;RS;BRASIL;APUA;12/02/2023;11:09:00;SIM;FINALIZADA;***;NÃO;NULL;0;1;NÃO
81309;81309;81309;81309;81309;INCIDENTE;-23.00694444444;-47.13444444444;CAMPINAS;SP;BRASIL;SBKP;02/02/2023;20:04:00;SIM;FINALIZADA;***;NÃO;NULL;0;1;NÃO
81308;81308;81308;81308;81308;INCIDENTE;-23.00694444444;-47.13444444444;CAMPINAS;SP;BRASIL;SBKP;29/01/2023;02:02:00;SIM;FINALIZADA;***;NÃO;NULL;0;1;NÃO
81307;81307;81307;81307;81307;INCIDENTE;-23.43555555555;-46.47305555555;GUARULHOS;SP;BRASIL;SBGR;13/02/2023;10:55:00;SIM;FINALIZADA;***;NÃO;NULL;0;1;NÃO
81306;81306;81306;81306;81306;ACIDENTE;-15.10444444444;-54.55361111111;CAMPO VERDE;MT;BRASIL;***;10/02/2023;09:45:00;SIM;ATIVA;A-025/CENIPA/2023;NÃO;NULL;0;1;NÃO
81305;81305;81305;81305;81305;ACIDENTE;-20.64722222222;-40.9775;VARGEM ALTA;ES;BRASIL;***;09/02/2023;21:30:00;NÃO;ATIVA;A-024/CENIPA/2023;NÃO;NULL;0;1;NÃO
81304;81304;81304;81304;81304;INCIDENTE;-23.00694444444;-47.13444444444;CAMPINAS;SP;BRASIL;SBKP;28/01/2023;06:00:00;SIM;FINALIZADA;***;NÃO;NULL;0;1;NÃO
81303;81303;81303;81303;81303;INCIDENTE;-23.00694444444;-47.13444444444;CAMPINAS;SP;BRASIL;SBKP;31/01/2023;22:24:00;SIM;FINALIZADA;***;NÃO;NULL;0;1;NÃO
81302;81302;81302;81302;81302;ACIDENTE;***;***;ERECHIM;RS;BRASIL;***;08/02/2023;21:40:00;NÃO;ATIVA;A-023/CENIPA/2023;NÃO;NULL;0;1;NÃO
81301;81301;81301;81301;81301;ACIDENTE;***;***;NOVO REPARTIMENTO;PA;BRASIL;***;07/02/2023;09:35:00;NÃO;FINALIZADA;***;NÃO;NULL;0;1;NÃO
81300;81300;81300;81300;81300;INCIDENTE GRAVE;-20.25805555555;-40.28638888888;VITÓRIA;ES;BRASIL;SBVT;08/02/2023;14:32:00;SIM;FINALIZADA;***;NÃO;NULL;0;1;NÃO
81299;81299;81299;81299;81299;ACIDENTE;-14.483056;-60.113889;VILA BELA DA SANTÍSSIMA TRINDADE;MT;BRASIL;***;04/02/2023;20:00:00;SIM;ATIVA;A-021/CENIPA/2023;NÃO;NULL;0;1;NÃO
81298;81298;81298;81298;81298;INCIDENTE;-23.00694444444;-47.13444444444;CAMPINAS;SP;BRASIL;SBKP;30/01/2023;06:00:00;SIM;FINALIZADA;***;NÃO;NULL;0;1;NÃO
81297;81297;81297;81297;81297;ACIDENTE;-6.094722222222;-52.24055555555;SÃO FÉLIX DO XINGU;PA;BRASIL;***;06/02/2023;10:55:00;SIM;ATIVA;A-022/CENIPA/2023;NÃO;NULL;0;1;NÃO
81296;81296;81296;81296;81296;INCIDENTE;-23.00694444444;-47.13444444444;CAMPINAS;SP;BRASIL;SBKP;03/02/2023;01:25:00;SIM;FINALIZADA;***;NÃO;NULL;0;1;NÃO
81295;81295;81295;81295;81295;INCIDENTE;-16.6325;-49.22111111111;GOIÂNIA;GO;BRASIL;SBGO;24/01/2023;20:05:00;SIM;FINALIZADA;***;NÃO;NULL;0;1;NÃO
81294;81294;81294;81294;81294;INCIDENTE;-25.53166666666;-49.17611111111;CURITIBA;PR;BRASIL;SBCT;13/01/2023;09:23:00;SIM;FINALIZADA;***;NÃO;NULL;0;1;NÃO
81293;81293;81293;81293;81293;INCIDENTE;-25.40333333333;-49.23361111111;CURITIBA;PR;BRASIL;SBBI;04/02/2023;19:00:00;SIM;FINALIZADA;***;NÃO;NULL;0;1;NÃO
81292;81292;81292;81292;81292;INCIDENTE;***;***;PORTO ALEGRE;RS;BRASIL;SSBN;05/02/2023;13:54:00;SIM;FINALIZADA;***;NÃO;NULL;0;1;NÃO
81290;81290;81290;81290;81290;INCIDENTE;***;***;RIO DE JANEIRO;RJ;BRASIL;SBRJ;13/01/2023;09:24:00;SIM;FINALIZADA;***;NÃO;NULL;0;1;NÃO
81289;81289;81289;81289;81289;ACIDENTE;***;***;ITAITUBA;PA;BRASIL;SNEJ;03/02/2023;15:10:00;NÃO;ATIVA;A-020/CENIPA/2023;NÃO;NULL;0;1;SIM
81288;81288;81288;81288;81288;INCIDENTE;-18.44444444444;-49.21361111111;ITUMBIARA;GO;BRASIL;SBIT;09/01/2023;18:00:00;SIM;FINALIZADA;***;NÃO;NULL;0;1;NÃO
81287;81287;81287;81287;81287;INCIDENTE;-16.58805555555;-54.72166666666;RONDONÓPOLIS;MT;BRASIL;SBRD;04/01/2023;16:05:00;SIM;FINALIZADA;***;NÃO;NULL;0;1;NÃO
81286;81286;81286;81286;81286;ACIDENTE;-10.94722222222;-54.355;MARCELÂNDIA;MT;BRASIL;***;28/01/2023;13:30:00;SIM;ATIVA;A-018/CENIPA/2023;NÃO;NULL;0;1;NÃO
81285;81285;81285;81285;81285;ACIDENTE;***;***;CANÁPOLIS;MG;BRASIL;****;30/01/2023;20:00:00;SIM;ATIVA;A-019/CENIPA/2023;NÃO;NULL;0;1;SIM
81284;81284;81284;81284;81284;INCIDENTE GRAVE;-10.5625;-46.42805555555;MATEIROS;TO;BRASIL;****;28/01/2023;12:00:00;SIM;ATIVA;IG-016/CENIPA/2023;NÃO;NULL;0;1;SIM
81283;81283;81283;81283;81283;INCIDENTE;-20.25805555555;-40.28638888888;VITÓRIA;ES;BRASIL;SBVT;27/01/2023;14:05:00;SIM;FINALIZADA;***;NÃO;NULL;0;1;NÃO
81282;81282;81282;81282;81282;INCIDENTE;-18.88361111111;-48.22527777777;UBERLÂNDIA;MG;BRASIL;SBUL;27/01/2023;13:18:00;SIM;FINALIZADA;***;NÃO;NULL;0;1;NÃO
81281;81281;81281;81281;81281;INCIDENTE GRAVE;***;***;SANTA RITA DO PARDO;MS;BRASIL;***;27/01/2023;19:30:00;SIM;FINALIZADA;***;NÃO;NULL;0;1;NÃO
81276;81276;81276;81276;81276;ACIDENTE;-23.44138888888;-45.07611111111;UBATUBA;SP;BRASIL;SDUB;28/01/2023;16:00:00;SIM;ATIVA;A-017/CENIPA/2023;NÃO;NULL;0;1;NÃO
81275;81275;81275;81275;81275;ACIDENTE;***;***;BELÉM;PA;BRASIL;SWEQ;27/01/2023;13:20:00;SIM;ATIVA;A-015/CENIPA/2023;NÃO;NULL;0;1;NÃO
81274;81274;81274;81274;81274;INCIDENTE;-23.43555555555;-46.47305555555;GUARULHOS;SP;BRASIL;SBGR;23/01/2023;03:15:00;SIM;FINALIZADA;***;NÃO;NULL;0;1;NÃO
81273;81273;81273;81273;81273;INCIDENTE;***;***;RIO DE JANEIRO;RJ;BRASIL;SBGL;13/01/2023;09:24:00;SIM;FINALIZADA;***;NÃO;NULL;0;1;NÃO
81272;81272;81272;81272;81272;INCIDENTE;***;***;RIO DE JANEIRO;RJ;BRASIL;SBGL;14/12/2022;20:09:00;SIM;FINALIZADA;***;NÃO;NULL;0;1;NÃO
81271;81271;81271;81271;81271;ACIDENTE;-19.56361111111;-50.35555555555;ITURAMA;MG;BRASIL;****;25/01/2023;20:59:00;NÃO;ATIVA;A-013/CENIPA/2023;NÃO;NULL;0;1;NÃO
81269;81269;81269;81269;81269;ACIDENTE;***;***;PAULÍNIA;SP;BRASIL;***;25/01/2023;12:00:00;SIM;FINALIZADA;***;NÃO;NULL;0;1;NÃO
81268;81268;81268;81268;81268;ACIDENTE;***;***;AMERICANA;SP;BRASIL;SDAI;26/01/2023;11:38:00;SIM;ATIVA;A-014/CENIPA/2023;NÃO;NULL;0;1;NÃO
81267;81267;81267;81267;81267;INCIDENTE;-23.61222222222;-51.385;APUCARANA;PR;BRASIL;SSAP;20/01/2023;22:15:00;SIM;FINALIZADA;***;NÃO;NULL;0;1;NÃO
81266;81266;81266;81266;81266;ACIDENTE;***;***;ITACARÉ;BA;BRASIL;***;22/01/2023;16:20:00;SIM;ATIVA;A-010/CENIPA/2023;NÃO;NULL;0;1;NÃO
81265;81265;81265;81265;81265;INCIDENTE;***;***;SANTA CRUZ CABRÁLIA;BA;BRASIL;***;21/01/2023;17:35:00;SIM;FINALIZADA;***;NÃO;NULL;0;1;NÃO
81264;81264;81264;81264;81264;INCIDENTE GRAVE;-17.35027777777;-50.06361111111;NÃO IDENTIFICADA;GO;BRASIL;***;25/01/2023;14:00:00;SIM;FINALIZADA;***;NÃO;NULL;0;1;NÃO
81263;81263;81263;81263;81263;ACIDENTE;***;***;LAGES;SC;BRASIL;***;25/01/2023;20:50:00;SIM;ATIVA;A-012/CENIPA/2023;NÃO;NULL;0;1;NÃO
81262;81262;81262;81262;81262;INCIDENTE;-15.59583333333;-56.00416666666;CUIABÁ;MT;BRASIL;SWXJ;24/01/2023;12:25:00;SIM;FINALIZADA;***;NÃO;NULL;0;1;NÃO
81261;81261;81261;81261;81261;ACIDENTE;-11.917222;-58.158889;BRASNORTE;MT;BRASIL;***;22/01/2023;17:00:00;SIM;ATIVA;A-011/CENIPA/2023;NÃO;NULL;0;1;NÃO
81260;81260;81260;81260;81260;ACIDENTE;-10.97333333333;-57.07833333333;JUARA;MT;BRASIL;***;22/01/2023;16:45:00;SIM;FINALIZADA;***;NÃO;NULL;0;1;NÃO
81259;81259;81259;81259;81259;INCIDENTE;***;***;JUÍNA;MT;BRASIL;SWJN;23/01/2023;18:00:00;SIM;FINALIZADA;***;NÃO;NULL;0;1;NÃO
81258;81258;81258;81258;81258;INCIDENTE;-16.92861111111;-52.44416666666;DOVERLÂNDIA;GO;BRASIL;***;20/01/2023;10:45:00;SIM;FINALIZADA;***;NÃO;NULL;0;1;NÃO
81257;81257;81257;81257;81257;ACIDENTE;***;***;BIRITIBA-MIRIM;SP;BRASIL;SDIH;21/01/2023;17:45:00;SIM;ATIVA;A-009/CENIPA/2023;NÃO;NULL;0;1;NÃO
81256;81256;81256;81256;81256;INCIDENTE;-23.50666666666;-46.63388888888;SÃO PAULO;SP;BRASIL;SBMT;21/01/2023;19:33:00;SIM;FINALIZADA;***;NÃO;NULL;0;1;NÃO
81254;81254;81254;81254;81254;INCIDENTE;-23.18166666666;-46.94361111111;JUNDIAÍ;SP;BRASIL;SBJD;19/01/2023;11:28:00;SIM;FINALIZADA;***;NÃO;NULL;0;1;NÃO
81253;81253;81253;81253;81253;ACIDENTE;***;***;RIBAS DO RIO PARDO;MS;BRASIL;***;17/01/2023;22:10:00;SIM;FINALIZADA;***;NÃO;NULL;0;1;NÃO
81251;81251;81251;81251;81251;INCIDENTE;***;***;PORTO SEGURO;BA;BRASIL;SBPS;22/01/2023;18:15:00;SIM;FINALIZADA;***;NÃO;NULL;0;1;NÃO
81250;81250;81250;81250;81250;INCIDENTE;-15.65;-56.1175;CUIABÁ;MT;BRASIL;SBCY;12/01/2023;02:17:00;SIM;FINALIZADA;***;NÃO;NULL;0;1;NÃO
81249;81249;81249;81249;81249;INCIDENTE;***;***;RECIFE;PE;BRASIL;SBRF;07/01/2023;01:39:00;SIM;FINALIZADA;***;NÃO;NULL;0;1;NÃO
81247;81247;81247;81247;81247;INCIDENTE;-23.62611111111;-46.65638888888;SÃO PAULO;SP;BRASIL;SBSP;08/01/2023;09:15:00;SIM;FINALIZADA;***;NÃO;NULL;0;1;NÃO
81246;81246;81246;81246;81246;ACIDENTE;***;***;CAJATI;SP;BRASIL;****;17/01/2023;12:15:00;SIM;ATIVA;A-008/CENIPA/2023;NÃO;NULL;0;1;NÃO
81245;81245;81245;81245;81245;ACIDENTE;-19.53111111111;-46.51694444444;IBIÁ;MG;BRASIL;****;17/01/2023;19:20:00;SIM;ATIVA;A-007/CENIPA/2023;NÃO;NULL;0;1;SIM
81244;81244;81244;81244;81244;ACIDENTE;3.7119444444444;-64.1625;AMAJARI;RR;BRASIL;SDRP;12/01/2023;16:40:00;SIM;ATIVA;A-005/CENIPA/2023;NÃO;NULL;0;1;NÃO
81243;81243;81243;81243;81243;ACIDENTE;2.9394444444444;-60.72944444444;BOA VISTA;RR;BRASIL;***;11/01/2023;10:00:00;SIM;ATIVA;A-004/CENIPA/2023;NÃO;NULL;0;1;NÃO
81242;81242;81242;81242;81242;INCIDENTE;-22.38222222222;-40.73194444444;CAMPOS DOS GOYTACAZES;RJ;BRASIL;***;16/01/2023;13:35:00;SIM;FINALIZADA;***;NÃO;NULL;0;1;NÃO
81241;81241;81241;81241;81241;INCIDENTE;-17.40611111111;-50.29416666666;ACREÚNA;GO;BRASIL;****;14/01/2023;17:30:00;SIM;FINALIZADA;***;NÃO;NULL;0;1;NÃO
81240;81240;81240;81240;81240;INCIDENTE;***;***;PETROLINA;PE;BRASIL;SBPL;12/01/2023;15:25:00;SIM;FINALIZADA;***;NÃO;NULL;0;1;NÃO
81239;81239;81239;81239;81239;ACIDENTE;***;***;BOA ESPERANÇA DO SUL;SP;BRASIL;****;15/01/2023;08:50:00;SIM;ATIVA;A-006/CENIPA/2023;NÃO;NULL;0;1;NÃO
81234;81234;81234;81234;81234;INCIDENTE;***;***;RECIFE;PE;BRASIL;SBRF;11/01/2023;23:20:00;SIM;FINALIZADA;***;NÃO;NULL;0;1;NÃO
81233;81233;81233;81233;81233;INCIDENTE;-23.62611111111;-46.65638888888;SÃO PAULO;SP;BRASIL;SBSP;10/01/2023;02:32:00;SIM;FINALIZADA;***;NÃO;NULL;0;1;NÃO
81232;81232;81232;81232;81232;INCIDENTE;-25.40333333333;-49.23361111111;CURITIBA;PR;BRASIL;SBBI;10/01/2023;16:15:00;SIM;FINALIZADA;***;NÃO;NULL;0;1;NÃO
81230;81230;81230;81230;81230;INCIDENTE;-23.03888888888;-45.51583333333;TAUBATÉ;SP;BRASIL;SBTA;12/01/2023;15:24:00;SIM;FINALIZADA;***;NÃO;NULL;0;1;NÃO
81229;81229;81229;81229;81229;INCIDENTE;-23.50666666666;-46.63388888888;SÃO PAULO;SP;BRASIL;SBMT;12/01/2023;20:00:00;SIM;FINALIZADA;***;NÃO;NULL;0;1;NÃO
81228;81228;81228;81228;81228;INCIDENTE;***;***;JOINVILLE;SC;BRASIL;***;28/12/2022;14:18:00;SIM;FINALIZADA;***;NÃO;NULL;0;1;NÃO
81227;81227;81227;81227;81227;INCIDENTE;-15.65444444444;-56.11694444444;CUIABÁ;MT;BRASIL;SBCY;11/01/2023;18:50:00;SIM;FINALIZADA;***;NÃO;NULL;0;1;NÃO
81226;81226;81226;81226;81226;INCIDENTE;-16.6325;-49.22111111111;GOIÂNIA;GO;BRASIL;SBGO;10/01/2023;18:50:00;SIM;FINALIZADA;***;NÃO;NULL;0;1;NÃO
81225;81225;81225;81225;81225;INCIDENTE;***;***;FLORIANÓPOLIS;SC;BRASIL;SBFL;09/01/2023;23:15:00;SIM;FINALIZADA;***;NÃO;NULL;0;1;NÃO
81224;81224;81224;81224;81224;INCIDENTE;***;***;RIO DE JANEIRO;RJ;BRASIL;SBRJ;07/01/2023;15:38:00;SIM;FINALIZADA;***;NÃO;NULL;0;1;NÃO
81223;81223;81223;81223;81223;INCIDENTE;***;***;BELO HORIZONTE;MG;BRASIL;SBBH;08/01/2023;15:43:00;SIM;FINALIZADA;***;NÃO;NULL;0;1;NÃO
81221;81221;81221;81221;81221;ACIDENTE;-3.923055555555;-38.32083333333;AQUIRAZ;CE;BRASIL;***;05/01/2023;19:30:00;SIM;ATIVA;A-002/CENIPA/2023;NÃO;NULL;0;1;NÃO
81220;81220;81220;81220;81220;ACIDENTE;-22.22055555555;-52.12666666666;MARABÁ PAULISTA;SP;BRASIL;SDNE;06/01/2023;19:20:00;SIM;ATIVA;A-003/CENIPA/2023;NÃO;NULL;0;1;NÃO
81219;81219;81219;81219;81219;INCIDENTE;-23.00694444444;-47.13444444444;CAMPINAS;SP;BRASIL;SBKP;19/12/2022;20:21:00;SIM;FINALIZADA;***;NÃO;NULL;0;1;NÃO
81218;81218;81218;81218;81218;INCIDENTE;***;***;BELÉM;PA;BRASIL;SBBE;05/01/2023;15:55:00;SIM;FINALIZADA;***;NÃO;NULL;0;1;NÃO
81217;81217;81217;81217;81217;ACIDENTE;***;***;IMBITUBA;SC;BRASIL;SSET;04/01/2023;15:30:00;SIM;ATIVA;A-001/CENIPA/2023;NÃO;NULL;0;1;SIM
81216;81216;81216;81216;81216;INCIDENTE;-18.88361111111;-48.22527777777;UBERLÂNDIA;MG;BRASIL;SBUL;30/12/2022;18:40:00;SIM;FINALIZADA;***;NÃO;NULL;0;1;NÃO
81215;81215;81215;81215;81215;INCIDENTE;***;***;SANTA MARIA;RS;BRASIL;SBSM;21/12/2022;10:42:00;SIM;FINALIZADA;***;NÃO;NULL;0;1;NÃO
81213;81213;81213;81213;81213;INCIDENTE;-7.803888888888;-45.05611111111;RIBEIRO GONÇALVES;PI;BRASIL;SBQE;02/01/2023;20:15:00;SIM;FINALIZADA;***;NÃO;NULL;0;1;NÃO
81212;81212;81212;81212;81212;INCIDENTE;***;***;RIO DE JANEIRO;RJ;BRASIL;SBRJ;01/01/2023;22:15:00;SIM;FINALIZADA;***;NÃO;NULL;0;1;NÃO
81211;81211;81211;81211;81211;INCIDENTE;***;***;RIO DE JANEIRO;RJ;BRASIL;SBGL;27/12/2022;15:20:00;SIM;FINALIZADA;***;NÃO;NULL;0;1;NÃO
81210;81210;81210;81210;81210;INCIDENTE;-19.62444444444;-43.97194444444;CONFINS;MG;BRASIL;SBCF;12/12/2022;11:54:00;SIM;FINALIZADA;***;NÃO;NULL;0;1;NÃO
81209;81209;81209;81209;81209;INCIDENTE;-16.6325;-49.22111111111;GOIÂNIA;GO;BRASIL;SBGO;25/12/2022;21:35:00;SIM;FINALIZADA;***;NÃO;NULL;0;1;NÃO
81208;81208;81208;81208;81208;INCIDENTE GRAVE;-16.26166666666;-47.96833333333;LUZIÂNIA;GO;BRASIL;SWUZ;27/12/2022;18:30:00;SIM;FINALIZADA;***;NÃO;NULL;0;1;NÃO
81207;81207;81207;81207;81207;INCIDENTE;-9.459444444444;-45.34833333333;MONTE ALEGRE DO PIAUÍ;PI;BRASIL;***;27/12/2022;17:40:00;SIM;FINALIZADA;***;NÃO;NULL;0;1;NÃO
81206;81206;81206;81206;81206;INCIDENTE;***;***;PORTO ALEGRE;RS;BRASIL;SBPA;08/12/2022;20:51:00;SIM;FINALIZADA;***;NÃO;NULL;0;1;NÃO
81205;81205;81205;81205;81205;ACIDENTE;-13.01666666666;-58.05916666666;BRASNORTE;MT;BRASIL;***;22/12/2022;10:20:00;SIM;ATIVA;A-147/CENIPA/2022;NÃO;NULL;0;1;NÃO
81204;81204;81204;81204;81204;INCIDENTE;-16.63138888888;-49.22194444444;GOIÂNIA;GO;BRASIL;SBGO;21/12/2022;13:20:00;SIM;FINALIZADA;***;NÃO;NULL;0;1;NÃO
81203;81203;81203;81203;81203;INCIDENTE GRAVE;-2.586944444444;-44.23611111111;SÃO LUÍS;MA;BRASIL;SBSL;26/12/2022;20:10:00;SIM;FINALIZADA;***;NÃO;NULL;0;1;NÃO
81201;81201;81201;81201;81201;ACIDENTE;***;***;CACEQUI;RS;BRASIL;APUA;23/12/2022;13:50:00;SIM;ATIVA;A-148/CENIPA/2022;NÃO;NULL;0;1;SIM
81200;81200;81200;81200;81200;INCIDENTE;-23.50666666666;-46.63388888888;SÃO PAULO;SP;BRASIL;SBMT;22/12/2022;14:10:00;SIM;FINALIZADA;***;NÃO;NULL;0;1;NÃO
81199;81199;81199;81199;81199;INCIDENTE GRAVE;***;***;ELDORADO DO SUL;RS;BRASIL;****;22/12/2022;12:00:00;SIM;FINALIZADA;***;NÃO;NULL;0;1;NÃO
81198;81198;81198;81198;81198;ACIDENTE;-18.55166666666;-50.41777777777;QUIRINÓPOLIS;GO;BRASIL;***;21/12/2022;14:20:00;SIM;ATIVA;A-146/CENIPA/2022;NÃO;NULL;0;1;SIM
81197;81197;81197;81197;81197;INCIDENTE GRAVE;***;***;FORMOSA DO RIO PRETO;BA;BRASIL;****;19/12/2022;12:00:00;SIM;FINALIZADA;***;NÃO;NULL;0;1;NÃO
81196;81196;81196;81196;81196;INCIDENTE;***;***;CAMPO GRANDE;MS;BRASIL;SSIE;21/12/2022;17:00:00;SIM;FINALIZADA;***;NÃO;NULL;0;1;SIM
81195;81195;81195;81195;81195;ACIDENTE;-18.21;-49.72138888888;BOM JESUS DE GOIÁS;GO;BRASIL;***;19/12/2022;09:50:00;SIM;ATIVA;A-145/CENIPA/2022;NÃO;NULL;0;1;NÃO
81194;81194;81194;81194;81194;INCIDENTE GRAVE;-11.61916666666;-50.68416666666;SÃO FÉLIX DO ARAGUAIA;MT;BRASIL;SWFX;18/12/2022;20:10:00;SIM;FINALIZADA;***;NÃO;NULL;0;1;SIM
81191;81191;81191;81191;81191;ACIDENTE;***;***;NÃO IDENTIFICADA;MT;BRASIL;**NI;08/12/2022;20:30:00;NÃO;FINALIZADA;***;NÃO;NULL;0;1;NÃO
81190;81190;81190;81190;81190;INCIDENTE;-5.060555555555;-42.82444444444;TERESINA;PI;BRASIL;SBTE;09/12/2022;14:15:00;SIM;FINALIZADA;***;NÃO;NULL;0;1;NÃO
81189;81189;81189;81189;81189;INCIDENTE;-23.54555555555;-46.46777777777;SÃO PAULO;SP;BRASIL;***;17/12/2022;15:25:00;SIM;FINALIZADA;***;NÃO;NULL;0;1;NÃO
81188;81188;81188;81188;81188;INCIDENTE;-12.21666666666;-55.36666666666;VERA;MT;BRASIL;**NI;17/12/2022;14:45:00;SIM;FINALIZADA;***;NÃO;NULL;0;1;NÃO
81187;81187;81187;81187;81187;INCIDENTE;-23.50666666666;-46.63388888888;SÃO PAULO;SP;BRASIL;SBMT;15/12/2022;22:49:00;SIM;FINALIZADA;***;NÃO;NULL;0;1;NÃO
81186;81186;81186;81186;81186;INCIDENTE;***;***;CAMPO GRANDE;MS;BRASIL;SSIE;15/12/2022;19:30:00;SIM;FINALIZADA;***;NÃO;NULL;0;1;NÃO
81185;81185;81185;81185;81185;ACIDENTE;***;***;RIO DE JANEIRO;RJ;BRASIL;***;14/12/2022;13:55:00;NÃO;ATIVA;A-144/CENIPA/2022;NÃO;NULL;0;1;NÃO
81184;81184;81184;81184;81184;INCIDENTE;***;***;MACAÉ;RJ;BRASIL;SBME;12/12/2022;18:38:00;SIM;FINALIZADA;***;NÃO;NULL;0;1;NÃO
81182;81182;81182;81182;81182;INCIDENTE;-9.868333333333;-67.89805555555;RIO BRANCO;AC;BRASIL;SBRB;09/12/2022;12:15:00;SIM;FINALIZADA;***;NÃO;NULL;0;1;NÃO
81181;81181;81181;81181;81181;INCIDENTE;-25.40583333333;-49.23111111111;CURITIBA;PR;BRASIL;SBBI;13/12/2022;18:45:00;SIM;FINALIZADA;***;NÃO;NULL;0;1;SIM
81180;81180;81180;81180;81180;INCIDENTE;-23.18166666666;-46.94361111111;JUNDIAÍ;SP;BRASIL;SBJD;03/12/2022;18:50:00;SIM;FINALIZADA;***;NÃO;NULL;0;1;NÃO
81179;81179;81179;81179;81179;INCIDENTE;***;***;CAXIAS DO SUL;RS;BRASIL;***;28/11/2022;13:30:00;SIM;FINALIZADA;***;NÃO;NULL;0;1;NÃO
81178;81178;81178;81178;81178;INCIDENTE GRAVE;***;***;FLORIANÓPOLIS;SC;BRASIL;SBFL;12/12/2022;17:00:00;SIM;FINALIZADA;***;NÃO;NULL;0;1;SIM
81177;81177;81177;81177;81177;ACIDENTE;-18.407778;-49.957222;INACIOLÂNDIA;GO;BRASIL;***;08/12/2022;21:30:00;SIM;ATIVA;A-142/CENIPA/2022;NÃO;NULL;0;1;NÃO
81176;81176;81176;81176;81176;INCIDENTE;***;***;CAÇAPAVA;SP;BRASIL;***;11/12/2022;18:30:00;SIM;FINALIZADA;***;NÃO;NULL;0;1;NÃO
81175;81175;81175;81175;81175;INCIDENTE;-23.18166666666;-46.94361111111;JUNDIAÍ;SP;BRASIL;SBJD;09/12/2022;15:00:00;SIM;FINALIZADA;***;NÃO;NULL;0;1;NÃO
81174;81174;81174;81174;81174;INCIDENTE;***;***;BELO HORIZONTE;MG;BRASIL;SBBH;06/12/2022;20:45:00;SIM;FINALIZADA;***;NÃO;NULL;0;1;NÃO
81173;81173;81173;81173;81173;INCIDENTE;***;***;MARINGÁ;PR;BRASIL;***;02/12/2022;14:00:00;SIM;FINALIZADA;***;NÃO;NULL;0;1;NÃO
81172;81172;81172;81172;81172;INCIDENTE GRAVE;***;***;FLORIANÓPOLIS;SC;BRASIL;SBFL;09/12/2022;10:20:00;SIM;ATIVA;IG-143/CENIPA/2022;NÃO;NULL;0;1;NÃO
81171;81171;81171;81171;81171;ACIDENTE;***;***;BRAGANÇA PAULISTA;SP;BRASIL;SDVH;07/12/2022;19:30:00;SIM;ATIVA;A-140/CENIPA/2022;NÃO;NULL;0;1;SIM
81170;81170;81170;81170;81170;INCIDENTE;-23.43555555555;-46.47305555555;GUARULHOS;SP;BRASIL;SBGR;09/12/2022;18:20:00;SIM;FINALIZADA;***;NÃO;NULL;0;1;NÃO
81169;81169;81169;81169;81169;ACIDENTE;-16.26194444444;-47.96638888888;LUZIÂNIA;GO;BRASIL;SWUZ;07/12/2022;14:50:00;SIM;FINALIZADA;A-141/CENIPA/2022;SIM;2023-05-31;0;1;SIM
81168;81168;81168;81168;81168;INCIDENTE;***;***;BELÉM;PA;BRASIL;SBBE;03/12/2022;10:00:00;SIM;FINALIZADA;***;NÃO;NULL;0;1;NÃO
81167;81167;81167;81167;81167;INCIDENTE;-18.88361111111;-48.22527777777;UBERLÂNDIA;MG;BRASIL;SBUL;06/12/2022;19:35:00;SIM;FINALIZADA;***;NÃO;NULL;0;1;NÃO
81166;81166;81166;81166;81166;INCIDENTE;-3.041111111111;-60.05055555555;MANAUS;AM;BRASIL;SBEG;26/11/2022;06:00:00;SIM;FINALIZADA;***;NÃO;NULL;0;1;NÃO
81165;81165;81165;81165;81165;INCIDENTE;-19.62444444444;-43.97194444444;CONFINS;MG;BRASIL;SBCF;03/12/2022;06:41:00;SIM;FINALIZADA;***;NÃO;NULL;0;1;NÃO
81163;81163;81163;81163;81163;INCIDENTE;***;***;AQUIDAUANA;MS;BRASIL;SSHA;05/12/2022;14:10:00;SIM;FINALIZADA;***;NÃO;NULL;0;1;NÃO
81162;81162;81162;81162;81162;ACIDENTE;***;***;PONTA GROSSA;PR;BRASIL;SBPG;05/12/2022;19:50:00;SIM;ATIVA;A-139/CENIPA/2022;NÃO;NULL;0;1;NÃO
81161;81161;81161;81161;81161;ACIDENTE;***;***;MANAUS;AM;BRASIL;SWFN;04/12/2022;15:47:00;SIM;ATIVA;A-137/CENIPA/2022;NÃO;NULL;0;1;SIM
81160;81160;81160;81160;81160;INCIDENTE;***;***;MACAÉ;RJ;BRASIL;***;02/12/2022;14:38:00;SIM;FINALIZADA;***;NÃO;NULL;0;1;NÃO
81159;81159;81159;81159;81159;ACIDENTE;-6.058888888888;-35.19777777777;NÍSIA FLORESTA;RN;BRASIL;***;04/12/2022;14:20:00;SIM;ATIVA;A-138/CENIPA/2022;NÃO;NULL;0;1;NÃO
81158;81158;81158;81158;81158;INCIDENTE;-19.62444444444;-43.97194444444;CONFINS;MG;BRASIL;SBCF;02/12/2022;12:00:00;SIM;FINALIZADA;***;NÃO;NULL;0;1;NÃO
81157;81157;81157;81157;81157;INCIDENTE;-15.65;-56.1175;CUIABÁ;MT;BRASIL;SBCY;03/12/2022;18:44:00;SIM;FINALIZADA;***;NÃO;NULL;0;1;NÃO
81156;81156;81156;81156;81156;INCIDENTE;***;***;BRASÍLIA;DF;BRASIL;SBBR;17/11/2022;15:15:00;SIM;FINALIZADA;***;NÃO;NULL;0;2;NÃO
81155;81155;81155;81155;81155;INCIDENTE;-14.86;-53.5;SANTO ANTÔNIO DO LESTE;MT;BRASIL;****;08/11/2022;17:25:00;SIM;FINALIZADA;***;NÃO;NULL;0;1;NÃO
81154;81154;81154;81154;81154;INCIDENTE;***;***;RECIFE;PE;BRASIL;SBRF;29/11/2022;23:24:00;SIM;FINALIZADA;***;NÃO;NULL;0;1;NÃO
81153;81153;81153;81153;81153;ACIDENTE;-13.247500;-53.087222;GAÚCHA DO NORTE;MT;BRASIL;***;29/11/2022;12:35:00;SIM;ATIVA;A-136/CENIPA/2022;NÃO;NULL;0;1;NÃO
81152;81152;81152;81152;81152;INCIDENTE;***;***;VITÓRIA DA CONQUISTA;BA;BRASIL;SBVC;30/11/2022;22:30:00;SIM;FINALIZADA;***;NÃO;NULL;0;1;NÃO
81151;81151;81151;81151;81151;INCIDENTE;-19.70222222222;-43.98666666666;SÃO JOSÉ DA LAPA;MG;BRASIL;****;29/11/2022;14:55:00;SIM;FINALIZADA;***;NÃO;NULL;0;1;NÃO
81150;81150;81150;81150;81150;INCIDENTE;-22.92083333333;-42.07138888888;CABO FRIO;RJ;BRASIL;SBCB;25/11/2022;19:30:00;SIM;FINALIZADA;***;NÃO;NULL;0;1;NÃO
81149;81149;81149;81149;81149;INCIDENTE GRAVE;-27.39111111111;-52.82194444444;NONOAI;RS;BRASIL;***;25/11/2022;13:15:00;SIM;FINALIZADA;***;NÃO;NULL;0;1;NÃO
81148;81148;81148;81148;81148;INCIDENTE;-23.62611111111;-46.65638888888;SÃO PAULO;SP;BRASIL;SBSP;26/11/2022;13:00:00;SIM;FINALIZADA;***;NÃO;NULL;0;1;NÃO
81147;81147;81147;81147;81147;INCIDENTE;***;***;RIO DE JANEIRO;RJ;BRASIL;SBRJ;25/11/2022;09:15:00;SIM;FINALIZADA;***;NÃO;NULL;0;1;NÃO
81146;81146;81146;81146;81146;ACIDENTE;-3.038333333333;-60.04916666666;MANAUS;AM;BRASIL;***;28/11/2022;02:00:00;SIM;ATIVA;A-135/CENIPA/2022;NÃO;NULL;0;1;NÃO
81145;81145;81145;81145;81145;ACIDENTE;-10.83833333333;-48.30138888888;PORTO NACIONAL;TO;BRASIL;***;25/11/2022;17:45:00;SIM;ATIVA;A-134/CENIPA/2022;NÃO;NULL;0;1;NÃO
81144;81144;81144;81144;81144;INCIDENTE GRAVE;***;***;SÃO DESIDÉRIO;BA;BRASIL;SDRQ;22/11/2022;13:10:00;SIM;FINALIZADA;***;NÃO;NULL;0;1;SIM
81143;81143;81143;81143;81143;INCIDENTE;-23.18166666666;-46.94361111111;JUNDIAÍ;SP;BRASIL;SBJD;23/11/2022;19:10:00;SIM;FINALIZADA;***;NÃO;NULL;0;1;NÃO
81142;81142;81142;81142;81142;INCIDENTE;***;***;MANAUS;AM;BRASIL;SBEG;24/10/2022;23:26:00;SIM;FINALIZADA;***;NÃO;NULL;0;1;NÃO
81141;81141;81141;81141;81141;INCIDENTE;***;***;RIO DE JANEIRO;RJ;BRASIL;SBJR;20/11/2022;12:01:00;SIM;FINALIZADA;***;NÃO;NULL;0;1;NÃO
81140;81140;81140;81140;81140;ACIDENTE;-15.770833;-58.331111;GLÓRIA D'OESTE;MT;BRASIL;***;19/11/2022;21:30:00;SIM;ATIVA;A-132/CENIPA/2022;NÃO;NULL;0;1;NÃO
81139;81139;81139;81139;81139;ACIDENTE;-12.3198;-55.5041;VERA;MT;BRASIL;***;18/11/2022;18:00:00;SIM;ATIVA;A-133/CENIPA/2022;NÃO;NULL;0;1;NÃO
81138;81138;81138;81138;81138;INCIDENTE GRAVE;***;***;FORQUILHINHA;SC;BRASIL;SSIM;17/11/2022;15:15:00;SIM;ATIVA;IG-130/CENIPA/2022;NÃO;NULL;0;1;NÃO
81136;81136;81136;81136;81136;INCIDENTE;-17.5787;-52.5425;MINEIROS;GO;BRASIL;SWME;30/10/2022;16:15:00;SIM;FINALIZADA;***;NÃO;NULL;0;1;NÃO
81135;81135;81135;81135;81135;ACIDENTE;***;***;NAVEGANTES;SC;BRASIL;***;17/11/2022;18:10:00;SIM;ATIVA;A-131/CENIPA/2022;NÃO;NULL;0;1;NÃO
81134;81134;81134;81134;81134;INCIDENTE;-23.00694444444;-47.13444444444;CAMPINAS;SP;BRASIL;SBRF;14/11/2022;11:21:00;SIM;FINALIZADA;***;NÃO;NULL;0;1;NÃO
81133;81133;81133;81133;81133;INCIDENTE;-19.64111111111;-43.97194444444;CONFINS;MG;BRASIL;SBCF;12/11/2022;16:35:00;SIM;FINALIZADA;***;NÃO;NULL;0;1;NÃO
81131;81131;81131;81131;81131;INCIDENTE;***;***;RIO DE JANEIRO;RJ;BRASIL;SBGL;16/11/2022;17:30:00;SIM;FINALIZADA;***;NÃO;NULL;0;2;NÃO
81130;81130;81130;81130;81130;ACIDENTE;-17.015833;-54.115000;ITIQUIRA;MT;BRASIL;***;04/11/2022;18:30:00;SIM;ATIVA;A-123/CENIPA/2022;NÃO;NULL;0;1;NÃO
81128;81128;81128;81128;81128;INCIDENTE;-16.62972222222;-49.22666666666;GOIÂNIA;GO;BRASIL;SBGO;14/11/2022;21:01:00;SIM;FINALIZADA;***;NÃO;NULL;0;1;NÃO
81127;81127;81127;81127;81127;INCIDENTE;-29.62111111111;-51.64944444444;PAVERAMA;RS;BRASIL;***;17/11/2022;12:28:00;SIM;FINALIZADA;***;NÃO;NULL;0;1;NÃO
81126;81126;81126;81126;81126;ACIDENTE;***;***;SANTA VITÓRIA DO PALMAR;RS;BRASIL;APUA;16/11/2022;19:00:00;SIM;ATIVA;A-129/CENIPA/2022;NÃO;NULL;0;1;SIM
81125;81125;81125;81125;81125;INCIDENTE;-23.43555555555;-46.47305555555;GUARULHOS;SP;BRASIL;SBGR;13/11/2022;21:10:00;SIM;FINALIZADA;***;NÃO;NULL;0;1;NÃO
81124;81124;81124;81124;81124;ACIDENTE;-9.390277777777;-51.72527777777;SÃO FÉLIX DO XINGU;PA;BRASIL;***;15/11/2022;18:30:00;SIM;ATIVA;A-128/CENIPA/2022;NÃO;NULL;0;1;SIM
81123;81123;81123;81123;81123;INCIDENTE;***;***;RECIFE;PE;BRASIL;SBRF;08/11/2022;18:35:00;SIM;FINALIZADA;***;NÃO;NULL;0;1;NÃO
81122;81122;81122;81122;81122;INCIDENTE;***;***;RECIFE;PE;BRASIL;SBRF;08/11/2022;12:17:00;SIM;FINALIZADA;***;NÃO;NULL;0;1;NÃO
81121;81121;81121;81121;81121;INCIDENTE;-23.43555555555;-46.47305555555;GUARULHOS;SP;BRASIL;SBGR;20/10/2022;12:23:00;SIM;FINALIZADA;***;NÃO;NULL;0;1;NÃO
81120;81120;81120;81120;81120;ACIDENTE;-7.219166666666;-39.26944444444;JUAZEIRO DO NORTE;CE;BRASIL;SBJU;11/11/2022;14:30:00;SIM;ATIVA;A-127/CENIPA/2022;NÃO;NULL;0;1;NÃO
81119;81119;81119;81119;81119;INCIDENTE;-23.43555555555;-46.47305555555;GUARULHOS;SP;BRASIL;SBGR;11/11/2022;18:30:00;SIM;FINALIZADA;***;NÃO;NULL;0;1;NÃO
81118;81118;81118;81118;81118;INCIDENTE;***;***;SALVADOR;BA;BRASIL;SBSV;09/11/2022;14:15:00;SIM;FINALIZADA;***;NÃO;NULL;0;1;NÃO
81117;81117;81117;81117;81117;INCIDENTE;-23.00694444444;-47.13444444444;CAMPINAS;SP;BRASIL;SBKP;07/11/2022;18:30:00;SIM;FINALIZADA;***;NÃO;NULL;0;1;NÃO
81116;81116;81116;81116;81116;INCIDENTE;-20.25805555555;-40.28638888888;VITÓRIA;ES;BRASIL;SBVT;24/10/2022;09:00:00;SIM;FINALIZADA;***;NÃO;NULL;0;2;NÃO
81115;81115;81115;81115;81115;ACIDENTE;***;***;MANAUS;AM;BRASIL;****;08/11/2022;18:00:00;SIM;FINALIZADA;***;NÃO;NULL;0;1;NÃO
81114;81114;81114;81114;81114;ACIDENTE;-16.26194444444;-47.96944444444;LUZIÂNIA;GO;BRASIL;SWUZ;06/11/2022;11:30:00;SIM;ATIVA;A-126/CENIPA/2022;NÃO;NULL;0;1;NÃO
81113;81113;81113;81113;81113;ACIDENTE;-12.04027777777;-55.50833333333;SINOP;MT;BRASIL;***;05/11/2022;20:10:00;SIM;ATIVA;A-124/CENIPA/2022;NÃO;NULL;0;1;NÃO
81109;81109;81109;81109;81109;INCIDENTE;***;***;GUANAMBI;BA;BRASIL;SNGI;05/11/2022;14:07:00;SIM;FINALIZADA;***;NÃO;NULL;0;1;NÃO
81108;81108;81108;81108;81108;INCIDENTE GRAVE;-3.072777777777;-60.02111111111;MANAUS;AM;BRASIL;SWFN;05/11/2022;14:00:00;SIM;ATIVA;IG-125/CENIPA/2022;NÃO;NULL;0;1;SIM
81106;81106;81106;81106;81106;INCIDENTE;***;***;ALTA FLORESTA;MT;BRASIL;SBAT;31/10/2022;15:45:00;SIM;FINALIZADA;***;NÃO;NULL;0;1;NÃO
81095;81095;81095;81095;81095;INCIDENTE;-22.48722222222;-40.09638888888;CAMPOS DOS GOYTACAZES;RJ;BRASIL;9PEB;05/11/2022;10:30:00;SIM;FINALIZADA;***;NÃO;NULL;0;1;NÃO
81094;81094;81094;81094;81094;INCIDENTE;-4.883055555555;-65.35583333333;COARI;AM;BRASIL;SBUY;01/11/2022;11:00:00;SIM;FINALIZADA;***;NÃO;NULL;0;1;NÃO
81093;81093;81093;81093;81093;INCIDENTE;***;***;SÃO JOSÉ DO RIO PRETO;SP;BRASIL;SBSR;29/10/2022;21:26:00;SIM;FINALIZADA;***;NÃO;NULL;0;1;NÃO
81092;81092;81092;81092;81092;INCIDENTE;-3.775833333333;-38.53222222222;FORTALEZA;CE;BRASIL;SBFZ;29/10/2022;05:33:00;SIM;FINALIZADA;***;NÃO;NULL;0;1;NÃO
81091;81091;81091;81091;81091;INCIDENTE;***;***;BELÉM;PA;BRASIL;SBBE;01/11/2022;14:25:00;SIM;FINALIZADA;***;NÃO;NULL;0;1;NÃO
81090;81090;81090;81090;81090;INCIDENTE;***;***;RIO DE JANEIRO;RJ;BRASIL;SBGL;30/10/2022;08:23:00;SIM;FINALIZADA;***;NÃO;NULL;0;1;NÃO
81089;81089;81089;81089;81089;INCIDENTE;-23.00694444444;-47.13444444444;CAMPINAS;SP;BRASIL;SBCF;27/10/2022;09:09:00;SIM;FINALIZADA;***;NÃO;NULL;0;1;NÃO
81088;81088;81088;81088;81088;INCIDENTE;-19.62444444444;-43.97194444444;CONFINS;MG;BRASIL;SBCF;17/10/2022;19:55:00;SIM;FINALIZADA;***;NÃO;NULL;0;1;NÃO
81087;81087;81087;81087;81087;INCIDENTE;-2.424722222222;-54.78583333333;SANTARÉM;PA;BRASIL;SBSN;25/10/2022;22:44:00;SIM;FINALIZADA;***;NÃO;NULL;0;1;NÃO
81086;81086;81086;81086;81086;ACIDENTE;-12.88472222222;-56.05833333333;LUCAS DO RIO VERDE;MT;BRASIL;***;29/10/2022;17:45:00;SIM;FINALIZADA;A-121/CENIPA/2022;SIM;2023-05-31;0;1;SIM
81085;81085;81085;81085;81085;ACIDENTE;-7.844444444444;-34.89138888888;IGARASSU;PE;BRASIL;SIFC;29/10/2022;16:00:00;SIM;ATIVA;A-122/CENIPA/2022;NÃO;NULL;0;1;NÃO
81084;81084;81084;81084;81084;INCIDENTE;-16.62555555555;-49.34944444444;GOIÂNIA;GO;BRASIL;SBNV;30/10/2022;17:08:00;SIM;FINALIZADA;***;NÃO;NULL;0;1;NÃO
81083;81083;81083;81083;81083;INCIDENTE;***;***;LONDRINA;PR;BRASIL;SBLO;19/10/2022;12:38:00;SIM;FINALIZADA;***;NÃO;NULL;0;1;NÃO
81082;81082;81082;81082;81082;INCIDENTE GRAVE;***;***;SÃO JOSÉ DOS CAMPOS;SP;BRASIL;SBSJ;26/10/2022;12:10:00;SIM;ATIVA;IG-120/CENIPA/2022;NÃO;NULL;0;2;NÃO
81081;81081;81081;81081;81081;INCIDENTE;-7.219166666666;-39.26944444444;JUAZEIRO DO NORTE;CE;BRASIL;SBJU;20/10/2022;21:05:00;SIM;FINALIZADA;***;NÃO;NULL;0;1;NÃO
81079;81079;81079;81079;81079;ACIDENTE;***;***;RIO DE JANEIRO;RJ;BRASIL;****;22/10/2022;17:20:00;SIM;ATIVA;A-119/CENIPA/2022;NÃO;NULL;0;1;NÃO
81077;81077;81077;81077;81077;INCIDENTE;-16.6325;-49.22111111111;GOIÂNIA;GO;BRASIL;SBGO;21/10/2022;16:39:00;SIM;FINALIZADA;***;NÃO;NULL;0;1;NÃO
81076;81076;81076;81076;81076;INCIDENTE;-19.62444444444;-43.97194444444;CONFINS;MG;BRASIL;SBCF;17/10/2022;09:41:00;SIM;FINALIZADA;***;NÃO;NULL;0;1;NÃO
81075;81075;81075;81075;81075;INCIDENTE;-23.43555555555;-46.47305555555;GUARULHOS;SP;BRASIL;SBGR;21/10/2022;19:48:00;SIM;FINALIZADA;***;NÃO;NULL;0;1;NÃO
81074;81074;81074;81074;81074;INCIDENTE;-23.00694444444;-47.13444444444;CAMPINAS;SP;BRASIL;SBKP;14/10/2022;01:41:00;SIM;FINALIZADA;***;NÃO;NULL;0;1;NÃO
81073;81073;81073;81073;81073;INCIDENTE;***;***;RECIFE;PE;BRASIL;SBRF;16/10/2022;13:24:00;SIM;FINALIZADA;***;NÃO;NULL;0;1;NÃO
81072;81072;81072;81072;81072;INCIDENTE;-15.65;-56.1175;VÁRZEA GRANDE;MT;BRASIL;SBCY;14/10/2022;01:58:00;SIM;FINALIZADA;***;NÃO;NULL;0;1;NÃO
81071;81071;81071;81071;81071;INCIDENTE;-25.53166666666;-49.17611111111;CURITIBA;PR;BRASIL;SBCT;06/10/2022;21:19:00;SIM;FINALIZADA;***;NÃO;NULL;0;1;NÃO
81070;81070;81070;81070;81070;INCIDENTE;***;***;BELÉM;PA;BRASIL;SBBE;30/09/2022;18:48:00;SIM;FINALIZADA;***;NÃO;NULL;0;1;NÃO
81069;81069;81069;81069;81069;ACIDENTE;-23.63972222222;-46.66083333333;SÃO PAULO;SP;BRASIL;***;19/10/2022;13:50:00;SIM;ATIVA;A-117/CENIPA/2022;NÃO;NULL;0;1;NÃO
81068;81068;81068;81068;81068;INCIDENTE;-23.62611111111;-46.65638888888;SÃO PAULO;SP;BRASIL;SBSP;19/10/2022;11:07:00;SIM;FINALIZADA;***;NÃO;NULL;0;1;NÃO
81066;81066;81066;81066;81066;ACIDENTE;-20.51916666666;-48.04666666666;IPUÃ;SP;BRASIL;****;19/10/2022;09:25:00;SIM;ATIVA;A-118/CENIPA/2022;NÃO;NULL;0;1;NÃO
81065;81065;81065;81065;81065;INCIDENTE;-22.85916666666;-47.10805555555;CAMPINAS;SP;BRASIL;SDAM;16/10/2022;12:55:00;SIM;FINALIZADA;***;NÃO;NULL;0;1;NÃO
81064;81064;81064;81064;81064;ACIDENTE;***;***;PONTA PORÃ;MS;BRASIL;***;16/10/2022;10:20:00;SIM;ATIVA;A-116/CENIPA/2022;NÃO;NULL;0;1;NÃO
81063;81063;81063;81063;81063;INCIDENTE;-23.00694444444;-47.13444444444;CAMPINAS;SP;BRASIL;SBKP;14/10/2022;16:40:00;SIM;FINALIZADA;***;NÃO;NULL;0;1;NÃO
81062;81062;81062;81062;81062;INCIDENTE;-23.00694444444;-47.13444444444;CAMPINAS;SP;BRASIL;SBKP;13/10/2022;22:26:00;SIM;FINALIZADA;***;NÃO;NULL;0;1;NÃO
81061;81061;81061;81061;81061;INCIDENTE;-23.00694444444;-47.13444444444;CAMPINAS;SP;BRASIL;SBKP;04/10/2022;22:26:00;SIM;FINALIZADA;***;NÃO;NULL;0;1;NÃO
81060;81060;81060;81060;81060;INCIDENTE;-20.25805555555;-40.28638888888;VITÓRIA;ES;BRASIL;SBVT;13/10/2022;17:50:00;SIM;FINALIZADA;***;NÃO;NULL;0;1;NÃO
81059;81059;81059;81059;81059;INCIDENTE GRAVE;***;***;SÃO JOSÉ DO RIO PRETO;SP;BRASIL;****;17/10/2022;21:06:00;SIM;FINALIZADA;***;NÃO;NULL;0;1;NÃO
81058;81058;81058;81058;81058;ACIDENTE;***;***;CANÁPOLIS;MG;BRASIL;***;15/10/2022;18:00:00;SIM;ATIVA;A-115/CENIPA/2022;NÃO;NULL;0;1;NÃO
81057;81057;81057;81057;81057;INCIDENTE;-25.40333333333;-49.23361111111;CURITIBA;PR;BRASIL;SBBI;08/10/2022;21:30:00;SIM;FINALIZADA;***;NÃO;NULL;0;1;NÃO
81055;81055;81055;81055;81055;INCIDENTE;-6.220555555555;-48.52277777777;SÃO GERALDO DO ARAGUAIA;PA;BRASIL;***;16/10/2022;16:20:00;SIM;FINALIZADA;***;NÃO;NULL;0;1;NÃO
81053;81053;81053;81053;81053;INCIDENTE;***;***;BRAGANÇA PAULISTA;SP;BRASIL;SBBP;15/10/2022;13:00:00;SIM;FINALIZADA;***;NÃO;NULL;0;1;NÃO
81052;81052;81052;81052;81052;INCIDENTE;***;***;RIO DE JANEIRO;RJ;BRASIL;SDRJ;20/08/2022;21:20:00;SIM;FINALIZADA;***;NÃO;NULL;0;1;NÃO
81051;81051;81051;81051;81051;INCIDENTE;-23.00694444444;-47.13444444444;CAMPINAS;SP;BRASIL;SBKP;25/09/2022;17:02:00;SIM;FINALIZADA;***;NÃO;NULL;0;1;NÃO
81050;81050;81050;81050;81050;INCIDENTE;***;***;RIO DE JANEIRO;RJ;BRASIL;SBGL;25/09/2022;14:51:00;SIM;FINALIZADA;***;NÃO;NULL;0;1;NÃO
81049;81049;81049;81049;81049;INCIDENTE GRAVE;-19.89083333333;-44.05805555555;CONTAGEM;MG;BRASIL;SNHN;13/10/2022;10:30:00;SIM;FINALIZADA;***;NÃO;NULL;0;1;NÃO
81048;81048;81048;81048;81048;INCIDENTE;-19.62444444444;-43.97194444444;CONFINS;MG;BRASIL;SBCF;21/09/2022;16:02:00;SIM;FINALIZADA;***;NÃO;NULL;0;1;NÃO
81047;81047;81047;81047;81047;INCIDENTE;***;***;FLORIANÓPOLIS;SC;BRASIL;SBFL;17/09/2022;22:26:00;SIM;FINALIZADA;***;NÃO;NULL;0;1;NÃO
81046;81046;81046;81046;81046;INCIDENTE;***;***;BRAGANÇA PAULISTA;SP;BRASIL;SBBP;12/10/2022;14:15:00;SIM;FINALIZADA;***;NÃO;NULL;0;1;NÃO
81045;81045;81045;81045;81045;INCIDENTE GRAVE;-16.62583333333;-49.34805555555;GOIÂNIA;GO;BRASIL;SBNV;11/10/2022;18:10:00;SIM;FINALIZADA;***;NÃO;NULL;0;1;SIM
81044;81044;81044;81044;81044;INCIDENTE;***;***;CAMPO GRANDE;MS;BRASIL;SBCG;12/10/2022;20:19:00;SIM;FINALIZADA;***;NÃO;NULL;0;1;NÃO
81043;81043;81043;81043;81043;INCIDENTE;-20.29361111111;-40.3125;VITÓRIA;ES;BRASIL;SIHC;11/10/2022;16:50:00;SIM;FINALIZADA;***;NÃO;NULL;0;1;NÃO
81042;81042;81042;81042;81042;ACIDENTE;***;***;PARANAPANEMA;SP;BRASIL;***;09/10/2022;19:00:00;SIM;ATIVA;A-114/CENIPA/2022;NÃO;NULL;0;1;NÃO
81041;81041;81041;81041;81041;INCIDENTE;-16.6325;-49.22111111111;GOIÂNIA;GO;BRASIL;SBGO;02/02/2022;16:45:00;SIM;FINALIZADA;***;NÃO;NULL;0;1;NÃO
81040;81040;81040;81040;81040;INCIDENTE GRAVE;***;***;IRANDUBA;AM;BRASIL;****;30/07/2022;11:00:00;SIM;FINALIZADA;***;NÃO;NULL;0;1;NÃO
81039;81039;81039;81039;81039;INCIDENTE;***;***;RIO DE JANEIRO;RJ;BRASIL;SBJR;09/10/2022;19:12:00;SIM;FINALIZADA;***;NÃO;NULL;0;1;NÃO
81032;81032;81032;81032;81032;INCIDENTE GRAVE;***;***;MARICÁ;RJ;BRASIL;SBMI;08/10/2022;19:06:00;SIM;FINALIZADA;***;NÃO;NULL;0;1;NÃO
81031;81031;81031;81031;81031;INCIDENTE;***;***;RIO DE JANEIRO;RJ;BRASIL;SBGL;08/09/2022;00:12:00;SIM;FINALIZADA;***;NÃO;NULL;0;1;NÃO
81030;81030;81030;81030;81030;INCIDENTE;-20.25805555555;-40.28638888888;VITÓRIA;ES;BRASIL;SBVT;09/10/2022;16:20:00;SIM;FINALIZADA;A DEFINIR;NÃO;NULL;0;1;NÃO
81029;81029;81029;81029;81029;INCIDENTE;***;***;BELO HORIZONTE;MG;BRASIL;SBBH;06/10/2022;00:44:00;SIM;FINALIZADA;***;NÃO;NULL;0;1;NÃO
81028;81028;81028;81028;81028;INCIDENTE;-19.79805555555;-47.96611111111;UBERABA;MG;BRASIL;SBUR;07/10/2022;16:44:00;SIM;FINALIZADA;***;NÃO;NULL;0;1;NÃO
81027;81027;81027;81027;81027;INCIDENTE GRAVE;-23.62611111111;-46.65638888888;SÃO PAULO;SP;BRASIL;SBSP;09/10/2022;16:30:00;SIM;ATIVA;IG-113/CENIPA/2022;NÃO;NULL;0;1;SIM
81026;81026;81026;81026;81026;INCIDENTE;***;***;RIO DE JANEIRO;RJ;BRASIL;SBRJ;14/09/2022;01:19:00;SIM;FINALIZADA;***;NÃO;NULL;0;1;NÃO
81025;81025;81025;81025;81025;INCIDENTE;-3.041111111111;-60.05055555555;MANAUS;AM;BRASIL;SBEG;05/10/2022;20:56:00;SIM;FINALIZADA;***;NÃO;NULL;0;1;NÃO
81023;81023;81023;81023;81023;INCIDENTE GRAVE;***;***;AMERICANA;SP;BRASIL;SDAI;06/10/2022;15:30:00;SIM;FINALIZADA;***;NÃO;NULL;0;1;SIM
81022;81022;81022;81022;81022;INCIDENTE;***;***;LOBATO;PR;BRASIL;***;03/10/2022;15:38:00;SIM;FINALIZADA;***;NÃO;NULL;0;1;NÃO
81021;81021;81021;81021;81021;ACIDENTE;-9.540778;-57.800222;NOVA BANDEIRANTES;MT;BRASIL;***;02/10/2022;19:00:00;SIM;ATIVA;A-111/CENIPA/2022;NÃO;NULL;0;1;SIM
81019;81019;81019;81019;81019;ACIDENTE;***;***;PORTO ALEGRE;RS;BRASIL;***;03/10/2022;20:50:00;SIM;ATIVA;A-112/CENIPA/2022;NÃO;NULL;0;1;NÃO
81018;81018;81018;81018;81018;ACIDENTE;***;***;LONTRAS;SC;BRASIL;***;24/09/2022;20:05:00;SIM;ATIVA;A-108/CENIPA/2022;NÃO;NULL;0;1;NÃO
81017;81017;81017;81017;81017;INCIDENTE GRAVE;-16.62555555555;-49.34944444444;GOIÂNIA;GO;BRASIL;SBNV;30/09/2022;13:40:00;SIM;FINALIZADA;***;NÃO;NULL;0;1;SIM
81014;81014;81014;81014;81014;ACIDENTE;2.7263888888889;-62.71166666666;BOA VISTA;RR;BRASIL;***;27/09/2022;00:00:00;SIM;FINALIZADA;***;NÃO;NULL;0;1;NÃO
81012;81012;81012;81012;81012;INCIDENTE;-19.82277777777;-40.09277777777;LINHARES;ES;BRASIL;***;30/09/2022;12:20:00;SIM;FINALIZADA;***;NÃO;NULL;0;1;NÃO
81011;81011;81011;81011;81011;INCIDENTE;***;***;RIO DE JANEIRO;RJ;BRASIL;SBRJ;10/07/2022;11:00:00;SIM;FINALIZADA;***;NÃO;NULL;0;1;NÃO
81010;81010;81010;81010;81010;INCIDENTE;***;***;BELÉM;PA;BRASIL;SBBE;28/07/2022;20:01:00;SIM;FINALIZADA;***;NÃO;NULL;0;1;NÃO
81009;81009;81009;81009;81009;INCIDENTE GRAVE;***;***;NAVIRAÍ;MS;BRASIL;**NI;01/10/2022;10:10:00;SIM;FINALIZADA;***;NÃO;NULL;0;1;SIM
81008;81008;81008;81008;81008;INCIDENTE;-23.43555555555;-46.47305555555;GUARULHOS;SP;BRASIL;SBGR;15/08/2022;03:15:00;SIM;FINALIZADA;***;NÃO;NULL;0;1;NÃO
81007;81007;81007;81007;81007;INCIDENTE;***;***;NÃO IDENTIFICADA;PR;BRASIL;***;16/09/2022;19:40:00;SIM;FINALIZADA;***;NÃO;NULL;0;1;NÃO
81006;81006;81006;81006;81006;INCIDENTE;-18.88638888888;-48.22527777777;UBERLÂNDIA;MG;BRASIL;SBUL;28/09/2022;12:55:00;SIM;FINALIZADA;***;NÃO;NULL;0;1;NÃO
81004;81004;81004;81004;81004;INCIDENTE GRAVE;-5.060555555555;-42.82444444444;TERESINA;PI;BRASIL;SBTE;15/09/2022;12:50:00;SIM;ATIVA;IG-105/CENIPA/2022;NÃO;NULL;0;2;NÃO
81003;81003;81003;81003;81003;INCIDENTE GRAVE;***;***;ARAÇATUBA;SP;BRASIL;SBAU;26/09/2022;18:30:00;SIM;FINALIZADA;***;NÃO;NULL;0;1;NÃO
81002;81002;81002;81002;81002;INCIDENTE;-12.40111111111;-52.88444444444;QUERÊNCIA;MT;BRASIL;***;22/09/2022;18:00:00;SIM;FINALIZADA;***;NÃO;NULL;0;1;NÃO
81001;81001;81001;81001;81001;INCIDENTE;***;***;BRAGANÇA PAULISTA;SP;BRASIL;SBBP;25/09/2022;20:00:00;SIM;FINALIZADA;***;NÃO;NULL;0;1;NÃO
81000;81000;81000;81000;81000;INCIDENTE;-5.060555555555;-42.82444444444;TERESINA;PI;BRASIL;SBTE;22/09/2022;09:50:00;SIM;FINALIZADA;***;NÃO;NULL;0;1;NÃO
80998;80998;80998;80998;80998;ACIDENTE;-19.1875;-42.04333333333;ENGENHEIRO CALDAS;MG;BRASIL;***;21/09/2022;17:51:00;SIM;ATIVA;A-107/CENIPA/2022;NÃO;NULL;0;1;NÃO
80997;80997;80997;80997;80997;INCIDENTE;-23.43555555555;-46.47305555555;GUARULHOS;SP;BRASIL;SBGR;21/09/2022;11:30:00;SIM;FINALIZADA;***;NÃO;NULL;0;1;NÃO
80996;80996;80996;80996;80996;INCIDENTE;-28.42722222222;-49.37805555555;CAMPO LARGO;PR;BRASIL;***;20/09/2022;18:17:00;SIM;FINALIZADA;***;NÃO;NULL;0;1;NÃO
80995;80995;80995;80995;80995;INCIDENTE;-3.662777777777;-53.75055555555;URUARÁ;PA;BRASIL;***;20/09/2022;14:00:00;SIM;FINALIZADA;***;NÃO;NULL;0;1;NÃO
80994;80994;80994;80994;80994;INCIDENTE;-25.53166666666;-49.17611111111;CURITIBA;PR;BRASIL;SBCT;19/09/2022;18:40:00;SIM;FINALIZADA;***;NÃO;NULL;0;1;NÃO
80993;80993;80993;80993;80993;ACIDENTE;-23.50694444444;-46.63416666666;SÃO PAULO;SP;BRASIL;SBMT;20/09/2022;09:05:00;SIM;ATIVA;A-106/CENIPA/2022;NÃO;NULL;0;1;NÃO
80990;80990;80990;80990;80990;INCIDENTE;-22.56083333333;-46.54555555555;SOCORRO;SP;BRASIL;**NI;17/09/2022;16:45:00;SIM;FINALIZADA;***;NÃO;NULL;0;1;NÃO
80989;80989;80989;80989;80989;INCIDENTE;***;***;BELO HORIZONTE;MG;BRASIL;SBBH;16/09/2022;18:48:00;SIM;FINALIZADA;***;NÃO;NULL;0;1;NÃO
80988;80988;80988;80988;80988;INCIDENTE GRAVE;***;***;CACHOEIRA DO ARARI;PA;BRASIL;SIEK;15/09/2022;16:20:00;SIM;FINALIZADA;***;NÃO;NULL;0;1;NÃO
80987;80987;80987;80987;80987;INCIDENTE;-19.62444444444;-43.97194444444;CONFINS;MG;BRASIL;SBCF;15/09/2022;15:12:00;SIM;FINALIZADA;***;NÃO;NULL;0;1;NÃO
80985;80985;80985;80985;80985;INCIDENTE;-23.00694444444;-47.13444444444;CAMPINAS;SP;BRASIL;SBKP;31/08/2022;16:09:00;SIM;FINALIZADA;***;NÃO;NULL;0;1;NÃO
80984;80984;80984;80984;80984;INCIDENTE GRAVE;***;***;BARRA DO CHOÇA;BA;BRASIL;SNGW;03/10/2021;12:00:00;SIM;FINALIZADA;***;NÃO;NULL;0;1;SIM
80982;80982;80982;80982;80982;INCIDENTE;-23.62611111111;-46.65638888888;SÃO PAULO;SP;BRASIL;SBSP;13/09/2022;11:30:00;SIM;FINALIZADA;***;NÃO;NULL;0;1;NÃO
80981;80981;80981;80981;80981;INCIDENTE;2.7836111111111;-60.58777777777;CANTÁ;RR;BRASIL;SWPD;11/09/2022;13:30:00;SIM;FINALIZADA;***;NÃO;NULL;0;1;NÃO
80980;80980;80980;80980;80980;ACIDENTE;-22.57833333333;-48.77444444444;LENÇÓIS PAULISTA;SP;BRASIL;SDLP;11/09/2022;17:23:00;SIM;ATIVA;A-104/CENIPA/2022;NÃO;NULL;0;1;NÃO
80979;80979;80979;80979;80979;ACIDENTE;-16.869722;-53.031667;ALTO ARAGUAIA;MT;BRASIL;***;10/09/2022;22:00:00;SIM;ATIVA;A-102/CENIPA/2022;NÃO;NULL;0;1;NÃO
80978;80978;80978;80978;80978;ACIDENTE;-17.80444444444;-50.48444444444;SANTA HELENA DE GOIÁS;GO;BRASIL;***;09/09/2022;15:40:00;SIM;ATIVA;A-100/CENIPA/2022;NÃO;NULL;0;1;NÃO
80977;80977;80977;80977;80977;INCIDENTE GRAVE;***;***;TRÊS LAGOAS;MS;BRASIL;***;10/09/2022;12:20:00;SIM;FINALIZADA;***;NÃO;NULL;0;1;NÃO
80976;80976;80976;80976;80976;INCIDENTE;-22.43;-45.48083333333;ITAJUBÁ;MG;BRASIL;SNHH;09/09/2022;15:30:00;SIM;FINALIZADA;***;NÃO;NULL;0;1;NÃO
80975;80975;80975;80975;80975;INCIDENTE;***;***;BELO HORIZONTE;MG;BRASIL;SBBH;04/09/2022;17:07:00;SIM;FINALIZADA;***;NÃO;NULL;0;1;SIM
80974;80974;80974;80974;80974;INCIDENTE;***;***;PORTO SEGURO;BA;BRASIL;SBPS;06/09/2022;16:50:00;SIM;FINALIZADA;***;NÃO;NULL;0;1;NÃO
80973;80973;80973;80973;80973;INCIDENTE;***;***;RIO DE JANEIRO;RJ;BRASIL;SBRJ;02/09/2022;23:20:00;SIM;FINALIZADA;***;NÃO;NULL;0;1;NÃO
80972;80972;80972;80972;80972;INCIDENTE;-15.65;-56.1175;VÁRZEA GRANDE;MT;BRASIL;SBCY;06/09/2022;15:37:00;SIM;FINALIZADA;***;NÃO;NULL;0;1;NÃO
80971;80971;80971;80971;80971;ACIDENTE;***;***;ORIXIMINÁ;PA;BRASIL;***;10/09/2022;13:50:00;SIM;ATIVA;A-103/CENIPA/2022;NÃO;NULL;0;1;NÃO
80970;80970;80970;80970;80970;INCIDENTE;***;***;BENEVIDES;PA;BRASIL;SNYP;09/09/2022;14:00:00;SIM;FINALIZADA;***;NÃO;NULL;0;1;NÃO
80969;80969;80969;80969;80969;INCIDENTE;***;***;MARABÁ;PA;BRASIL;SBMA;10/09/2022;17:45:00;SIM;FINALIZADA;A DEFINIR;NÃO;NULL;0;1;NÃO
80968;80968;80968;80968;80968;INCIDENTE;-3.380277777777;-64.72527777777;TEFÉ;AM;BRASIL;SBTF;02/09/2022;22:28:00;SIM;FINALIZADA;***;NÃO;NULL;0;1;NÃO
80967;80967;80967;80967;80967;INCIDENTE;***;***;BARRA VELHA;SC;BRASIL;***;26/08/2022;19:30:00;SIM;FINALIZADA;***;NÃO;NULL;0;1;NÃO
80966;80966;80966;80966;80966;ACIDENTE;-21.79305555555;-43.38555555555;JUIZ DE FORA;MG;BRASIL;SBJF;08/09/2022;20:10:00;SIM;ATIVA;A-101/CENIPA/2022;NÃO;NULL;0;1;SIM
80964;80964;80964;80964;80964;INCIDENTE;-10.29;-48.35777777777;PALMAS;TO;BRASIL;SBPJ;11/08/2022;05:31:00;SIM;FINALIZADA;***;NÃO;NULL;0;1;NÃO
80963;80963;80963;80963;80963;INCIDENTE;-25.53166666666;-49.17611111111;CURITIBA;PR;BRASIL;SBCT;02/09/2022;23:03:00;SIM;FINALIZADA;***;NÃO;NULL;0;1;NÃO
80962;80962;80962;80962;80962;INCIDENTE;-23.00694444444;-47.13444444444;CAMPINAS;SP;BRASIL;SBKP;17/08/2022;10:52:00;SIM;FINALIZADA;***;NÃO;NULL;0;1;NÃO
80961;80961;80961;80961;80961;ACIDENTE;***;***;MONTE SANTO;BA;BRASIL;***;06/09/2022;13:30:00;SIM;ATIVA;A-099/CENIPA/2022;NÃO;NULL;0;1;NÃO
80960;80960;80960;80960;80960;INCIDENTE;-23.00694444444;-47.13444444444;CAMPINAS;SP;BRASIL;SBKP;31/08/2022;16:09:00;SIM;FINALIZADA;***;NÃO;NULL;0;1;NÃO
80959;80959;80959;80959;80959;INCIDENTE GRAVE;-16.63138888888;-49.22166666666;GOIÂNIA;GO;BRASIL;SBGO;03/08/2022;20:47:00;SIM;ATIVA;IG-109/CENIPA/2022;NÃO;NULL;0;2;NÃO
80958;80958;80958;80958;80958;INCIDENTE;-16.70611111111;-43.81916666666;MONTES CLAROS;MG;BRASIL;SBMK;05/09/2022;20:40:00;SIM;FINALIZADA;***;NÃO;NULL;0;1;NÃO
80956;80956;80956;80956;80956;INCIDENTE;-3.775833333333;-38.53222222222;FORTALEZA;CE;BRASIL;SBFZ;29/08/2022;12:04:00;SIM;FINALIZADA;***;NÃO;NULL;0;1;NÃO
80955;80955;80955;80955;80955;INCIDENTE;-15.65388888888;-56.11611111111;CUIABÁ;MT;BRASIL;SBCY;06/09/2022;17:40:00;SIM;FINALIZADA;***;NÃO;NULL;0;1;NÃO
80954;80954;80954;80954;80954;ACIDENTE;***;***;NAVEGANTES;SC;BRASIL;SBNF;02/09/2022;11:40:00;SIM;ATIVA;A-098/CENIPA/2022;NÃO;NULL;0;1;NÃO
80953;80953;80953;80953;80953;INCIDENTE;-23.50666666666;-46.63388888888;SÃO PAULO;SP;BRASIL;SBMT;27/08/2022;23:15:00;SIM;FINALIZADA;***;NÃO;NULL;0;1;NÃO
80952;80952;80952;80952;80952;ACIDENTE;***;***;ELDORADO DO SUL;RS;BRASIL;SSMK;01/09/2022;18:00:00;SIM;ATIVA;A-097/CENIPA/2022;NÃO;NULL;0;1;NÃO
80951;80951;80951;80951;80951;INCIDENTE GRAVE;***;***;ASSIS;SP;BRASIL;SNAX;31/08/2022;18:45:00;SIM;FINALIZADA;***;NÃO;NULL;0;1;SIM
80950;80950;80950;80950;80950;INCIDENTE;-23.43555555555;-46.47305555555;GUARULHOS;SP;BRASIL;SBGR;28/08/2022;12:30:00;SIM;FINALIZADA;***;NÃO;NULL;0;1;NÃO
80949;80949;80949;80949;80949;INCIDENTE;***;***;SÃO JOSÉ DOS CAMPOS;SP;BRASIL;SBSJ;18/08/2022;00:30:00;SIM;FINALIZADA;***;NÃO;NULL;0;1;NÃO
80948;80948;80948;80948;80948;INCIDENTE;-25.53166666666;-49.17611111111;CURITIBA;PR;BRASIL;SBCT;28/08/2022;12:30:00;SIM;FINALIZADA;***;NÃO;NULL;0;1;NÃO
80947;80947;80947;80947;80947;INCIDENTE;-3.038888888888;-60.04611111111;MANAUS;AM;BRASIL;SBEG;20/08/2022;08:13:00;SIM;FINALIZADA;***;NÃO;NULL;0;1;NÃO
80945;80945;80945;80945;80945;ACIDENTE;-19.84194444444;-44.6025;PARÁ DE MINAS;MG;BRASIL;SNPA;28/08/2022;20:00:00;SIM;ATIVA;A-095/CENIPA/2022;NÃO;NULL;0;1;SIM
80943;80943;80943;80943;80943;INCIDENTE;***;***;GUARAQUEÇABA;PR;BRASIL;***;18/08/2022;17:30:00;SIM;FINALIZADA;***;NÃO;NULL;0;1;NÃO
80942;80942;80942;80942;80942;ACIDENTE;-25.42055555555;-49.51222222222;CAMPO LARGO;PR;BRASIL;***;27/08/2022;20:30:00;SIM;ATIVA;A-094/CENIPA/2022;NÃO;NULL;0;1;NÃO
80941;80941;80941;80941;80941;INCIDENTE GRAVE;-5.530555555555;-47.45833333333;IMPERATRIZ;MA;BRASIL;SBIZ;26/08/2022;11:58:00;SIM;FINALIZADA;***;NÃO;NULL;0;1;SIM
80940;80940;80940;80940;80940;ACIDENTE;***;***;RIBAS DO RIO PARDO;MS;BRASIL;***;28/08/2022;20:30:00;SIM;ATIVA;A-096/CENIPA/2022;NÃO;NULL;0;1;NÃO
80939;80939;80939;80939;80939;INCIDENTE;-8.126388888888;-34.92277777777;RECIFE;PE;BRASIL;SBRF;20/08/2022;16:35:00;SIM;FINALIZADA;***;NÃO;NULL;0;1;NÃO
80938;80938;80938;80938;80938;INCIDENTE;-5.368055555555;-49.13805555555;MARABÁ;PA;BRASIL;SBMA;29/08/2022;NULL;SIM;FINALIZADA;***;NÃO;NULL;0;1;NÃO
80936;80936;80936;80936;80936;INCIDENTE;-6.641388888888;-51.95222222222;SÃO FÉLIX DO XINGU;PA;BRASIL;SNFX;25/08/2022;15:55:00;SIM;FINALIZADA;***;NÃO;NULL;0;1;NÃO
80935;80935;80935;80935;80935;INCIDENTE;-22.43166;-47.5625;RIO CLARO;SP;BRASIL;SDRK;24/08/2022;20:15:00;SIM;FINALIZADA;***;NÃO;NULL;0;1;NÃO
80934;80934;80934;80934;80934;INCIDENTE GRAVE;-19.90916;-43.98916;BELO HORIZONTE;MG;BRASIL;SBPR;19/08/2022;19:00:00;SIM;FINALIZADA;***;NÃO;NULL;0;1;NÃO
80932;80932;80932;80932;80932;INCIDENTE;-22.81;-43.25055555555;RIO DE JANEIRO;RJ;BRASIL;SBRJ;17/08/2022;09:49:00;SIM;FINALIZADA;***;NÃO;NULL;0;1;NÃO
80931;80931;80931;80931;80931;ACIDENTE;-22.97250000;-46.68833333;BRAGANÇA PAULISTA;SP;BRASIL;**NI;22/08/2022;23:10:00;SIM;ATIVA;A-093/CENIPA/2022;NÃO;NULL;0;1;NÃO
80930;80930;80930;80930;80930;INCIDENTE;-26.87861111111;-48.65083333333;NAVEGANTES;SC;BRASIL;SBNF;18/08/2022;21:17:00;SIM;FINALIZADA;***;NÃO;NULL;0;1;NÃO
80929;80929;80929;80929;80929;INCIDENTE GRAVE;-20.790562;-51.187308;ANDRADINA;SP;BRASIL;***;20/08/2022;20:00:00;SIM;FINALIZADA;***;NÃO;NULL;0;1;NÃO
80928;80928;80928;80928;80928;INCIDENTE;-23.00694444444;-47.13444444444;CAMPINAS;SP;BRASIL;SBKP;14/08/2022;05:11:00;SIM;FINALIZADA;***;NÃO;NULL;0;1;NÃO
80927;80927;80927;80927;80927;INCIDENTE;-15.65;-56.1175;VÁRZEA GRANDE;MT;BRASIL;SBCY;14/08/2022;21:52:00;SIM;FINALIZADA;***;NÃO;NULL;0;1;NÃO
80926;80926;80926;80926;80926;INCIDENTE;-30.189167;-51.182500;PORTO ALEGRE;RS;BRASIL;SSBN;19/08/2022;14:10:00;SIM;FINALIZADA;***;NÃO;NULL;0;1;NÃO
80925;80925;80925;80925;80925;INCIDENTE GRAVE;-23.50666666666;-46.63388888888;SÃO PAULO;SP;BRASIL;SBMT;20/08/2022;19:00:00;SIM;FINALIZADA;***;NÃO;NULL;0;1;NÃO
80924;80924;80924;80924;80924;INCIDENTE GRAVE;-21.52611111;-57.02861111;PORTO MURTINHO;MS;BRASIL;**NI;19/08/2022;18:40:00;SIM;FINALIZADA;***;NÃO;NULL;0;1;NÃO
80923;80923;80923;80923;80923;INCIDENTE GRAVE;-19.85194;-43.95055;BELO HORIZONTE;MG;BRASIL;SBBH;19/08/2022;16:06:00;SIM;ATIVA;IG-092/CENIPA/2022;NÃO;NULL;0;1;SIM
80922;80922;80922;80922;80922;INCIDENTE GRAVE;-23.92805555555;-46.29972222222;GUARUJÁ;SP;BRASIL;SBST;16/08/2022;13:00:00;SIM;FINALIZADA;***;NÃO;NULL;0;1;NÃO
80921;80921;80921;80921;80921;ACIDENTE;-2.480555555555;-44.24333333333;SÃO LUÍS;MA;BRASIL;***;14/08/2022;19:00:00;SIM;FINALIZADA;***;NÃO;NULL;0;1;NÃO
80920;80920;80920;80920;80920;ACIDENTE;-22.99666;-43.38805;RIO DE JANEIRO;RJ;BRASIL;***;15/08/2022;18:30:00;SIM;ATIVA;A-091/CENIPA/2022;NÃO;NULL;0;1;NÃO
80919;80919;80919;80919;80919;INCIDENTE;-23.47777777777;-47.49;SOROCABA;SP;BRASIL;SDCO;15/08/2022;11:30:00;SIM;FINALIZADA;***;NÃO;NULL;0;1;NÃO
80918;80918;80918;80918;80918;INCIDENTE GRAVE;-13.73138888888;-57.89166666666;CAMPO NOVO DO PARECIS;MT;BRASIL;**NI;01/10/2021;12:00:00;SIM;FINALIZADA;***;NÃO;NULL;0;1;SIM
80917;80917;80917;80917;80917;INCIDENTE GRAVE;-16.6325;-49.22111111111;GOIÂNIA;GO;BRASIL;SBGO;12/08/2022;20:00:00;SIM;ATIVA;IG-089/CENIPA/2022;NÃO;NULL;0;1;NÃO
80916;80916;80916;80916;80916;INCIDENTE GRAVE;-12.91055;-38.32722;SALVADOR;BA;BRASIL;SBSV;13/08/2022;14:15:00;SIM;ATIVA;IG-090/CENIPA/2022;NÃO;NULL;0;1;SIM
80915;80915;80915;80915;80915;INCIDENTE;-16.6325;-49.22111111111;GOIÂNIA;GO;BRASIL;SBGO;15/08/2022;09:25:00;SIM;FINALIZADA;***;NÃO;NULL;0;1;NÃO
80914;80914;80914;80914;80914;INCIDENTE GRAVE;-20.51777777777;-47.23666666666;FRANCA;SP;BRASIL;***;12/08/2022;10:45:00;SIM;FINALIZADA;***;NÃO;NULL;0;1;NÃO
80913;80913;80913;80913;80913;INCIDENTE;-23.43555555555;-46.47305555555;GUARULHOS;SP;BRASIL;SBGR;06/08/2022;14:00:00;SIM;FINALIZADA;***;NÃO;NULL;0;1;NÃO
80912;80912;80912;80912;80912;INCIDENTE;-22.81;-43.25055555555;RIO DE JANEIRO;RJ;BRASIL;SBGL;10/08/2022;10:09:00;SIM;FINALIZADA;***;NÃO;NULL;0;1;NÃO
80911;80911;80911;80911;80911;INCIDENTE;-27.131667;-52.676389;CHAPECÓ;SC;BRASIL;SBCH;05/08/2022;17:22:00;SIM;FINALIZADA;***;NÃO;NULL;0;2;NÃO
80910;80910;80910;80910;80910;INCIDENTE;-5.431388888888;-51.02416666666;SÃO FÉLIX DO XINGU;PA;BRASIL;***;09/08/2022;18:24:00;SIM;FINALIZADA;***;NÃO;NULL;0;1;NÃO
80908;80908;80908;80908;80908;INCIDENTE;-23.47777777777;-47.49;SOROCABA;SP;BRASIL;SDCO;10/08/2022;14:50:00;SIM;FINALIZADA;***;NÃO;NULL;0;1;NÃO
80907;80907;80907;80907;80907;INCIDENTE;-5.36333;-49.13166;MARABÁ;PA;BRASIL;SBMA;09/08/2022;18:00:00;SIM;FINALIZADA;***;NÃO;NULL;0;1;NÃO
80906;80906;80906;80906;80906;INCIDENTE;-8.126388888888;-34.92277777777;RECIFE;PE;BRASIL;SBRF;07/08/2022;00:28:00;SIM;FINALIZADA;***;NÃO;NULL;0;1;NÃO
80905;80905;80905;80905;80905;INCIDENTE;-1.437777777777;-48.13555555555;BELÉM;PA;BRASIL;SBBE;05/08/2022;19:09:00;SIM;FINALIZADA;***;NÃO;NULL;0;1;NÃO
80904;80904;80904;80904;80904;ACIDENTE;-16.62305555555;-49.35194444444;GOIÂNIA;GO;BRASIL;SBNV;07/08/2022;14:50:00;SIM;ATIVA;A-088/CENIPA/2022;NÃO;NULL;0;1;SIM
80903;80903;80903;80903;80903;INCIDENTE GRAVE;-24.566944;-52.578611;NOVA CANTU;PR;BRASIL;***;19/07/2022;13:26:00;SIM;FINALIZADA;***;NÃO;NULL;0;1;NÃO
80902;80902;80902;80902;80902;INCIDENTE;-16.58527777777;-54.72472222222;RONDONÓPOLIS;MT;BRASIL;SBRD;06/08/2022;14:45:00;SIM;FINALIZADA;***;NÃO;NULL;0;1;NÃO
80900;80900;80900;80900;80900;INCIDENTE;-9.3625;-40.56916666666;PETROLINA;PE;BRASIL;SBPL;04/08/2022;18:56:00;SIM;FINALIZADA;***;NÃO;NULL;0;1;NÃO
80899;80899;80899;80899;80899;ACIDENTE;-23.41611111111;-46.70833333333;SÃO PAULO;SP;BRASIL;***;05/08/2022;21:40:00;SIM;ATIVA;A-087/CENIPA/2022;NÃO;NULL;0;1;NÃO
80898;80898;80898;80898;80898;INCIDENTE GRAVE;-23.330278;-51.136667;LONDRINA;PR;BRASIL;SBLO;04/08/2022;21:10:00;SIM;FINALIZADA;***;NÃO;NULL;0;1;SIM
80897;80897;80897;80897;80897;INCIDENTE GRAVE;-22.96138888888;-43.65944444444;RIO DE JANEIRO;RJ;BRASIL;SIAN;26/07/2022;18:30:00;SIM;FINALIZADA;***;NÃO;NULL;0;1;SIM
80896;80896;80896;80896;80896;INCIDENTE;-20.00694444444;-47.13444444444;CAMPINAS;SP;BRASIL;SBKP;29/07/2022;23:40:00;SIM;FINALIZADA;***;NÃO;NULL;0;1;NÃO
80895;80895;80895;80895;80895;INCIDENTE GRAVE;-16.70611111111;-43.82194444444;MONTES CLAROS;MG;BRASIL;SBMK;02/08/2022;15:05:00;SIM;FINALIZADA;***;NÃO;NULL;0;1;NÃO
80894;80894;80894;80894;80894;INCIDENTE;-15.43861111111;-51.59833333333;JUSSARA;GO;BRASIL;SWGW;31/07/2022;13:30:00;SIM;FINALIZADA;***;NÃO;NULL;0;1;NÃO
80891;80891;80891;80891;80891;INCIDENTE;-23.62611111111;-46.65638888888;SÃO PAULO;SP;BRASIL;SBSP;29/07/2022;20:50:00;SIM;FINALIZADA;***;NÃO;NULL;0;1;NÃO
80890;80890;80890;80890;80890;INCIDENTE;-15.65166666666;-56.11722222222;CUIABÁ;MT;BRASIL;SBCY;12/07/2022;14:50:00;SIM;FINALIZADA;***;NÃO;NULL;0;1;NÃO
80887;80887;80887;80887;80887;INCIDENTE;-22.810000;-43.250556;RIO DE JANEIRO;RJ;BRASIL;SBGL;30/07/2022;01:23:00;SIM;FINALIZADA;***;NÃO;NULL;0;1;NÃO
80886;80886;80886;80886;80886;INCIDENTE;-7.278888888888;-64.76944444444;LÁBREA;AM;BRASIL;SWLB;29/07/2022;17:12:00;SIM;FINALIZADA;***;NÃO;NULL;0;1;NÃO
80885;80885;80885;80885;80885;ACIDENTE;-14,92416;-41,95666;CONDEÚBA;BA;BRASIL;SIPO;27/07/2022;13:40:00;SIM;ATIVA;A-086/CENIPA/2022;NÃO;NULL;0;1;SIM
80884;80884;80884;80884;80884;INCIDENTE;-0.050833333333;-51.07027777777;MACAPÁ;AP;BRASIL;SBMQ;27/07/2022;18:20:00;SIM;FINALIZADA;***;NÃO;NULL;0;1;NÃO
80883;80883;80883;80883;80883;INCIDENTE;-1.384722;-48.478889;BELÉM;PA;BRASIL;SBBE;27/07/2022;19:18:00;SIM;FINALIZADA;***;NÃO;NULL;0;1;NÃO
80882;80882;80882;80882;80882;INCIDENTE;-22.3436;-49.0538;BAURU;SP;BRASIL;SBBU;27/07/2022;17:30:00;SIM;FINALIZADA;***;NÃO;NULL;0;2;NÃO
80881;80881;80881;80881;80881;INCIDENTE;-23.42916666666;-51.42333333333;ARAPONGAS;PR;BRASIL;***;25/07/2022;12:38:00;SIM;FINALIZADA;***;NÃO;NULL;0;1;NÃO
80879;80879;80879;80879;80879;ACIDENTE;-21.065556;-54.113889;CAMPO GRANDE;MS;BRASIL;***;26/07/2022;20:02:00;SIM;ATIVA;A-085/CENIPA/2022;NÃO;NULL;0;1;NÃO
80878;80878;80878;80878;80878;INCIDENTE;-26.223056;-48.797778;JOINVILLE;SC;BRASIL;SBJV;25/07/2022;20:09:00;SIM;FINALIZADA;***;NÃO;NULL;0;1;NÃO
80877;80877;80877;80877;80877;INCIDENTE;-8.126389;-34.922778;RECIFE;PE;BRASIL;SBRF;22/07/2022;08:45:00;SIM;FINALIZADA;***;NÃO;NULL;0;1;NÃO
80876;80876;80876;80876;80876;INCIDENTE;-8.03151;-49.98016;REDENÇÃO;PA;BRASIL;SNDC;24/07/2022;15:25:00;SIM;FINALIZADA;***;NÃO;NULL;0;1;NÃO
80875;80875;80875;80875;80875;INCIDENTE;-25.40333333333;-49.2325;CURITIBA;PR;BRASIL;SBBI;22/07/2022;21:44:00;SIM;FINALIZADA;***;NÃO;NULL;0;1;SIM
80874;80874;80874;80874;80874;INCIDENTE;-22.98333333333;-47.48333333333;CAPIVARI;SP;BRASIL;***;25/07/2022;16:40:00;SIM;FINALIZADA;***;NÃO;NULL;0;1;NÃO
80873;80873;80873;80873;80873;INCIDENTE;-3.041111111111;-60.05055555555;MANAUS;AM;BRASIL;SBEG;24/07/2022;23:30:00;SIM;FINALIZADA;***;NÃO;NULL;0;1;NÃO
80872;80872;80872;80872;80872;INCIDENTE;-22.810000;-43.250556;RIO DE JANEIRO;RJ;BRASIL;SBGL;22/07/2022;06:20:00;SIM;FINALIZADA;***;NÃO;NULL;0;1;NÃO
80871;80871;80871;80871;80871;ACIDENTE;-22,95941;-52,96531;LOANDA;PR;BRASIL;***;19/07/2022;17:00:00;SIM;ATIVA;A-084/CENIPA/2022;NÃO;NULL;0;1;NÃO
80870;80870;80870;80870;80870;INCIDENTE;-20.505556;-54.524722;CAMPO GRANDE;MS;BRASIL;SSKG;19/07/2022;18:38:00;SIM;FINALIZADA;***;NÃO;NULL;0;2;NÃO
80869;80869;80869;80869;80869;INCIDENTE;-22.93277;-43.71944;RIO DE JANEIRO;RJ;BRASIL;SBSC;19/07/2022;20:15:00;SIM;FINALIZADA;***;NÃO;NULL;0;1;NÃO
80866;80866;80866;80866;80866;INCIDENTE;-19.62444444444;-43.97194444444;CONFINS;MG;BRASIL;SBCF;20/07/2022;14:08:00;SIM;FINALIZADA;***;NÃO;NULL;0;1;NÃO
80864;80864;80864;80864;80864;INCIDENTE;-1.381944;-48.478611;BELÉM;PA;BRASIL;SBBE;18/07/2022;14:25:00;SIM;FINALIZADA;***;NÃO;NULL;0;1;NÃO
80863;80863;80863;80863;80863;INCIDENTE;-15.879493;-47.923143;BRASÍLIA;DF;BRASIL;SBBR;17/07/2022;20:35:00;SIM;FINALIZADA;***;NÃO;NULL;0;1;NÃO
80862;80862;80862;80862;80862;INCIDENTE;-23.62611111111;-46.65638888888;SÃO PAULO;SP;BRASIL;SBSP;18/07/2022;12:54:00;SIM;FINALIZADA;***;NÃO;NULL;0;2;NÃO
80861;80861;80861;80861;80861;INCIDENTE;-22.20555555555;-40.83;CAMPOS DOS GOYTACAZES;RJ;BRASIL;***;16/07/2022;18:25:00;SIM;FINALIZADA;***;NÃO;NULL;0;1;NÃO
80860;80860;80860;80860;80860;INCIDENTE;-22.515556;-41.916389;RIO DAS OSTRAS;RJ;BRASIL;**NI;15/07/2022;00:30:00;SIM;FINALIZADA;***;NÃO;NULL;0;1;NÃO
80858;80858;80858;80858;80858;ACIDENTE;2.4402777777778;-60.92666666666;MUCAJAÍ;RR;BRASIL;***;13/07/2022;15:30:00;SIM;FINALIZADA;***;NÃO;NULL;0;1;NÃO
80857;80857;80857;80857;80857;INCIDENTE;-22.8100;43.25056;RIO DE JANEIRO;RJ;BRASIL;SBGL;07/07/2022;17:30:00;SIM;FINALIZADA;***;NÃO;NULL;0;1;NÃO
80856;80856;80856;80856;80856;ACIDENTE;- 2.728333;- 60.812778;BOA VISTA;RR;BRASIL;***;12/07/2022;10:40:00;SIM;ATIVA;A-083/CENIPA/2022;NÃO;NULL;0;1;NÃO
80854;80854;80854;80854;80854;ACIDENTE;-14.70472222222;-59.28888888888;CONQUISTA D'OESTE;MT;BRASIL;***;11/07/2022;19:30:00;SIM;FINALIZADA;***;NÃO;NULL;0;1;NÃO
80853;80853;80853;80853;80853;INCIDENTE;-15.65;-56.1175;VÁRZEA GRANDE;MT;BRASIL;SBCY;09/07/2022;15:30:00;SIM;FINALIZADA;***;NÃO;NULL;0;1;NÃO
80852;80852;80852;80852;80852;INCIDENTE;-25.60027777777;-54.485;FOZ DO IGUAÇU;PR;BRASIL;SBFI;20/06/2022;17:02:00;SIM;FINALIZADA;***;NÃO;NULL;0;1;NÃO
80851;80851;80851;80851;80851;INCIDENTE;-9.3675;-40.559444;PETROLINA;PE;BRASIL;SBPL;27/05/2022;12:57:00;SIM;FINALIZADA;***;NÃO;NULL;0;2;NÃO
80850;80850;80850;80850;80850;INCIDENTE;-26.217222;-52.694444;PATO BRANCO;PR;BRASIL;SBPO;03/07/2022;20:10:00;SIM;FINALIZADA;***;NÃO;NULL;0;1;NÃO
80849;80849;80849;80849;80849;INCIDENTE;-28.675278;-49.060278;JAGUARUNA;SC;BRASIL;SBJA;03/06/2022;15:40:00;SIM;FINALIZADA;***;NÃO;NULL;0;1;NÃO
80848;80848;80848;80848;80848;ACIDENTE;-19.32722222222;-41.2575;RESPLENDOR;MG;BRASIL;***;14/06/2022;18:00:00;SIM;FINALIZADA;***;NÃO;NULL;0;1;NÃO
80846;80846;80846;80846;80846;INCIDENTE;-29.1485615;-51.536753;BENTO GONÇALVES;RS;BRASIL;SSBG;09/07/2022;18:55:00;SIM;FINALIZADA;***;NÃO;NULL;0;1;NÃO
80844;80844;80844;80844;80844;INCIDENTE;-22.85916666666;-47.10805555555;CAMPINAS;SP;BRASIL;SDAM;26/06/2022;13:45:00;SIM;FINALIZADA;***;NÃO;NULL;0;1;NÃO
80843;80843;80843;80843;80843;INCIDENTE;-23.00694444444;-47.13444444444;CONFINS;MG;BRASIL;SBCF;05/07/2022;06:23:00;SIM;FINALIZADA;***;NÃO;NULL;0;1;NÃO
80842;80842;80842;80842;80842;INCIDENTE GRAVE;-13.26388888888;-56.02444444444;LUCAS DO RIO VERDE;MT;BRASIL;***;06/07/2022;21:50:00;SIM;FINALIZADA;***;NÃO;NULL;0;1;NÃO
80841;80841;80841;80841;80841;INCIDENTE GRAVE;-18.43555555555;-49.87444444444;INACIOLÂNDIA;GO;BRASIL;**NI;08/07/2022;14:00:00;SIM;FINALIZADA;***;NÃO;NULL;0;1;NÃO
80840;80840;80840;80840;80840;INCIDENTE;-3.038888888888;-60.04611111111;MANAUS;AM;BRASIL;SBEG;01/07/2022;01:58:00;SIM;FINALIZADA;***;NÃO;NULL;0;1;NÃO
80839;80839;80839;80839;80839;INCIDENTE;-23.228889;-45.871111;SÃO JOSÉ DOS CAMPOS;SP;BRASIL;SBSJ;05/07/2022;18:25:00;SIM;FINALIZADA;***;NÃO;NULL;0;1;NÃO
80838;80838;80838;80838;80838;ACIDENTE;-12.5375;-56.2025;TAPURAH;MT;BRASIL;***;05/07/2022;13:30:00;SIM;ATIVA;A-082/CENIPA/2022;NÃO;NULL;0;1;NÃO
80837;80837;80837;80837;80837;INCIDENTE GRAVE;-7.034444444444;-71.68694444444;IPIXUNA;AM;BRASIL;**NI;05/07/2022;21:22:00;SIM;FINALIZADA;***;NÃO;NULL;0;1;SIM
80836;80836;80836;80836;80836;ACIDENTE;-12,29333;-40,57166;RUY BARBOSA;BA;BRASIL;***;04/07/2022;12:10:00;SIM;FINALIZADA;A-081/CENIPA/2022;SIM;2023-04-17;0;1;NÃO
80835;80835;80835;80835;80835;ACIDENTE;-19.02083333333;-48.32333333333;UBERLÂNDIA;MG;BRASIL;***;16/06/2022;20:21:00;SIM;FINALIZADA;***;NÃO;NULL;0;1;NÃO
80834;80834;80834;80834;80834;INCIDENTE;-39,03333;-14,85100;ILHÉUS;BA;BRASIL;SBIL;04/07/2022;21:34:00;SIM;FINALIZADA;***;NÃO;NULL;0;1;NÃO
80833;80833;80833;80833;80833;INCIDENTE;-3.038888888888;-60.04611111111;MANAUS;AM;BRASIL;SBEG;29/06/2022;00:37:00;SIM;FINALIZADA;***;NÃO;NULL;0;1;NÃO
80832;80832;80832;80832;80832;INCIDENTE;-3.038888888888;-60.04611111111;MANAUS;AM;BRASIL;SBEG;30/06/2022;20:29:00;SIM;FINALIZADA;***;NÃO;NULL;0;1;NÃO
80831;80831;80831;80831;80831;INCIDENTE;-19.62444444444;-43.97194444444;CONFINS;MG;BRASIL;SBCF;24/06/2022;16:06:00;SIM;FINALIZADA;***;NÃO;NULL;0;1;NÃO
80830;80830;80830;80830;80830;INCIDENTE;-9.245277777777;-63.55666666666;CANDEIAS DO JAMARI;RO;BRASIL;**NI;01/07/2022;21:10:00;SIM;FINALIZADA;***;NÃO;NULL;0;1;NÃO
80829;80829;80829;80829;80829;INCIDENTE;-8.12638888888;-34.9227777777;RECIFE;PE;BRASIL;SBRF;24/06/2022;14:38:00;SIM;FINALIZADA;***;NÃO;NULL;0;1;NÃO
80828;80828;80828;80828;80828;INCIDENTE;-18.88361111111;-48.22527777777;UBERLÂNDIA;MG;BRASIL;SBUL;23/06/2022;20:25:00;SIM;FINALIZADA;***;NÃO;NULL;0;1;NÃO
80827;80827;80827;80827;80827;INCIDENTE GRAVE;-25.233333;-49.950000;PONTA GROSSA;PR;BRASIL;***;24/06/2022;20:30:00;SIM;FINALIZADA;***;NÃO;NULL;0;1;NÃO
80825;80825;80825;80825;80825;INCIDENTE;-23.00694444444;-47.13444444444;CAMPINAS;SP;BRASIL;SBKP;21/06/2022;12:12:00;SIM;FINALIZADA;***;NÃO;NULL;0;1;NÃO
80824;80824;80824;80824;80824;INCIDENTE;-23.00694444444;-47.13444444444;CAMPINAS;SP;BRASIL;SBKP;20/06/2022;10:09:00;SIM;FINALIZADA;***;NÃO;NULL;0;1;NÃO
80823;80823;80823;80823;80823;ACIDENTE;-21.02944444444;-43.07972222222;UBÁ;MG;BRASIL;***;20/06/2022;18:45:00;SIM;ATIVA;A-077/CENIPA/2022;NÃO;NULL;0;1;NÃO
80822;80822;80822;80822;80822;INCIDENTE;-23.00694444444;-47.13444444444;CAMPINAS;SP;BRASIL;SBKP;20/06/2022;20:18:00;SIM;FINALIZADA;***;NÃO;NULL;0;1;NÃO
80821;80821;80821;80821;80821;INCIDENTE;-15.87111111111;-47.91861111111;BRASÍLIA;DF;BRASIL;SBGR;25/06/2022;14:32:00;SIM;FINALIZADA;***;NÃO;NULL;0;1;NÃO
80820;80820;80820;80820;80820;ACIDENTE;-23.350833;-51.493056;ARAPONGAS;PR;BRASIL;SSOG;25/06/2022;19:00:00;SIM;ATIVA;A-080/CENIPA/2022;NÃO;NULL;0;1;SIM
80819;80819;80819;80819;80819;INCIDENTE;-16.63222222222;-49.22027777777;GOIÂNIA;GO;BRASIL;SBGO;24/06/2022;14:44:00;SIM;FINALIZADA;***;NÃO;NULL;0;1;NÃO
80818;80818;80818;80818;80818;ACIDENTE;-23.69803;-47.55695;SALTO DE PIRAPORA;SP;BRASIL;***;25/06/2022;15:00:00;SIM;ATIVA;A-079/CENIPA/2022;NÃO;NULL;0;1;NÃO
80817;80817;80817;80817;80817;INCIDENTE;-20.816111;-49.404722;SÃO JOSÉ DO RIO PRETO;SP;BRASIL;SBSR;23/06/2022;22:59:00;SIM;FINALIZADA;***;NÃO;NULL;0;1;NÃO
80816;80816;80816;80816;80816;ACIDENTE;-1.31271;-48.33227;BENEVIDES;PA;BRASIL;***;22/06/2022;16:15:00;SIM;ATIVA;A-078/CENIPA/2022;NÃO;NULL;0;1;NÃO
80815;80815;80815;80815;80815;INCIDENTE;2.8413888888889;-60.69222222222;BOA VISTA;RR;BRASIL;SBBV;21/06/2022;05:15:00;SIM;FINALIZADA;***;NÃO;NULL;0;1;NÃO
80814;80814;80814;80814;80814;INCIDENTE;-8.713611111111;-63.90277777777;PORTO VELHO;RO;BRASIL;SBPV;23/06/2022;12:06:00;SIM;FINALIZADA;***;NÃO;NULL;0;1;NÃO
80813;80813;80813;80813;80813;ACIDENTE;-3.507222222222;-44.80416666666;ARARI;MA;BRASIL;***;20/06/2022;21:10:00;SIM;ATIVA;A-076/CENIPA/2022;NÃO;NULL;0;1;NÃO
80812;80812;80812;80812;80812;INCIDENTE;-2.424722222222;-54.78583333333;SANTARÉM;PA;BRASIL;SBSN;20/06/2022;11:25:00;SIM;FINALIZADA;***;NÃO;NULL;0;1;NÃO
80811;80811;80811;80811;80811;INCIDENTE;-23.50666666666;-46.63388888888;SÃO PAULO;SP;BRASIL;SBMT;21/06/2022;19:00:00;SIM;FINALIZADA;***;NÃO;NULL;0;1;NÃO
80810;80810;80810;80810;80810;INCIDENTE;-25.53166666666;-49.17611111111;CURITIBA;PR;BRASIL;SBCT;15/06/2022;21:25:00;SIM;FINALIZADA;***;NÃO;NULL;0;1;NÃO
80809;80809;80809;80809;80809;INCIDENTE;-15.87111111111;-47.91861111111;BRASÍLIA;DF;BRASIL;SBBR;19/06/2022;01:17:00;SIM;FINALIZADA;***;NÃO;NULL;0;1;NÃO
80808;80808;80808;80808;80808;INCIDENTE;-30.187003;-51.181266;PORTO ALEGRE;RS;BRASIL;SSBN;13/06/2022;19:30:00;SIM;FINALIZADA;***;NÃO;NULL;0;1;NÃO
80807;80807;80807;80807;80807;INCIDENTE;-4.666666666666;-65.39055555555;COARI;AM;BRASIL;***;20/06/2022;19:02:00;SIM;FINALIZADA;***;NÃO;NULL;0;1;NÃO
80806;80806;80806;80806;80806;INCIDENTE;-1.38472;-48.47888;BELÉM;PA;BRASIL;SBBE;19/06/2022;16:25:00;SIM;FINALIZADA;***;NÃO;NULL;0;1;NÃO
80805;80805;80805;80805;80805;INCIDENTE;-15.65;-56.1175;CUIABÁ;MT;BRASIL;SBCY;12/06/2022;23:00:00;SIM;FINALIZADA;***;NÃO;NULL;0;1;NÃO
80804;80804;80804;80804;80804;INCIDENTE;-15.87111111111;-47.91861111111;BRASÍLIA;DF;BRASIL;SBBR;13/06/2022;10:50:00;SIM;FINALIZADA;***;NÃO;NULL;0;1;NÃO
80803;80803;80803;80803;80803;ACIDENTE;-1.25333;-47.66138;SÃO FRANCISCO DO PARÁ;PA;BRASIL;***;17/06/2022;12:00:00;SIM;ATIVA;A-075/CENIPA/2022;NÃO;NULL;0;1;NÃO
80802;80802;80802;80802;80802;INCIDENTE;-23.2288;-45.8711;SÃO JOSÉ DOS CAMPOS;SP;BRASIL;SBSJ;19/06/2022;16:15:00;SIM;FINALIZADA;***;NÃO;NULL;0;1;NÃO
80800;80800;80800;80800;80800;ACIDENTE;-22.1019;-48.2269;RIBEIRÃO BONITO;SP;BRASIL;SJEH;17/06/2022;17:11:00;SIM;ATIVA;A-074/CENIPA/2022;NÃO;NULL;0;1;SIM
80799;80799;80799;80799;80799;INCIDENTE GRAVE;-11.885000;-55.586111;SINOP;MT;BRASIL;SBSI;16/06/2022;15:55:00;SIM;FINALIZADA;A-072/CENIPA/2022;NÃO;NULL;0;1;SIM
80797;80797;80797;80797;80797;ACIDENTE;-20.27666666666;-50.21388888888;FERNANDÓPOLIS;SP;BRASIL;SDFD;17/06/2022;13:10:00;SIM;ATIVA;A-073/CENIPA/2022;NÃO;NULL;0;1;SIM
80796;80796;80796;80796;80796;INCIDENTE;-15.871111;-47.918611;BRASÍLIA;DF;BRASIL;SBBR;14/06/2022;19:10:00;SIM;FINALIZADA;***;NÃO;NULL;0;1;NÃO
80795;80795;80795;80795;80795;ACIDENTE;-5.31388;-57.65916;ITAITUBA;PA;BRASIL;***;15/06/2022;15:30:00;NÃO;ATIVA;A-071/CENIPA/2022;NÃO;NULL;0;1;NÃO
